id;label;code;icao;city;desc;runways;longest;elev;lat;lon
0;version;0.77;;;Graph created by Kelvin R. Lawrence;;;;;
1;airport;ATL;KATL;Atlanta;Hartsfield - Jackson Atlanta International Airport;5;12390;1026;33.63669968;-84.42810059
2;airport;ANC;PANC;Anchorage;Anchorage Ted Stevens;3;12400;151;61.17440033;-149.9960022
3;airport;AUS;KAUS;Austin;Austin Bergstrom International Airport;2;12250;542;30.19449997;-97.66989899
4;airport;BNA;KBNA;Nashville;Nashville International Airport;4;11030;599;36.12450027;-86.67819977
5;airport;BOS;KBOS;Boston;Boston Logan;6;10083;19;42.36429977;-71.00520325
6;airport;BWI;KBWI;Baltimore;Baltimore/Washington International Airport;3;10502;143;39.17539978;-76.66829681
7;airport;DCA;KDCA;Washington D.C.;Ronald Reagan Washington National Airport;3;7169;14;38.85210037;-77.03769684
8;airport;DFW;KDFW;Dallas;Dallas/Fort Worth International Airport;7;13401;607;32.89680099;-97.03800201
9;airport;FLL;KFLL;Fort Lauderdale;Fort Lauderdale/Hollywood International Airport;2;9000;64;26.07259941;-80.15270233
10;airport;IAD;KIAD;Washington D.C.;Washington Dulles International Airport;4;11500;313;38.94449997;-77.45580292
11;airport;IAH;KIAH;Houston;George Bush Intercontinental;5;12001;96;29.9843998;-95.34140015
12;airport;JFK;KJFK;New York;New York John F. Kennedy International Airport;4;14511;12;40.63980103;-73.77890015
13;airport;LAX;KLAX;Los Angeles;Los Angeles International Airport;4;12091;127;33.94250107;-118.4079971
14;airport;LGA;KLGA;New York;New York La Guardia;2;7003;20;40.77719879;-73.87259674
15;airport;MCO;KMCO;Orlando;Orlando International Airport;4;12005;96;28.42939949;-81.30899811
16;airport;MIA;KMIA;Miami;Miami International Airport;4;13016;8;25.79319954;-80.29060364
17;airport;MSP;KMSP;Minneapolis;Minneapolis-St.Paul International Airport;4;11006;841;44.88199997;-93.22180176
18;airport;ORD;KORD;Chicago;Chicago O'Hare International Airport;8;13000;672;41.97859955;-87.90480042
19;airport;PBI;KPBI;West Palm Beach;Palm Beach International Airport;3;10000;19;26.68320084;-80.09559631
20;airport;PHX;KPHX;Phoenix;Phoenix Sky Harbor International Airport;3;11489;1135;33.43429947;-112.012001
21;airport;RDU;KRDU;Raleigh;Raleigh-Durham;3;10000;435;35.87760162;-78.78749847
22;airport;SEA;KSEA;Seattle;Seattle-Tacoma;3;11901;432;47.44900131;-122.3089981
23;airport;SFO;KSFO;San Francisco;San Francisco International Airport;4;11870;13;37.61899948;-122.375
24;airport;SJC;KSJC;San Jose;Norman Y. Mineta San Jose International Airport;3;11000;62;37.36259842;-121.9290009
25;airport;TPA;KTPA;Tampa;Tampa International Airport;3;11002;26;27.97550011;-82.53320313
26;airport;SAN;KSAN;San Diego;San Diego Lindbergh;1;9400;16;32.73360062;-117.1900024
27;airport;LGB;KLGB;Long Beach;Long Beach Airport;3;10003;60;33.81769943;-118.1520004
28;airport;SNA;KSNA;Santa Ana;Orange County/Santa Ana, John Wayne;2;5701;56;33.67570114;-117.8679962
29;airport;SLC;KSLC;Salt Lake City;Salt Lake City;4;12002;56;40.78839874;-111.9779968
30;airport;LAS;KLAS;Las Vegas;Las Vegas Mc Carran;4;14512;2181;36.08010101;-115.1520004
31;airport;DEN;KDEN;Denver;Denver International Airport;6;16000;5433;39.86169815;-104.6729965
32;airport;HPN;KHPN;White Plains;Westchester County;2;6549;439;41.06700134;-73.70760345
33;airport;SAT;KSAT;San Antonio;San Antonio;3;8505;809;29.53370094;-98.46980286
34;airport;MSY;KMSY;New Orleans;New Orleans L. Armstrong;2;10104;3;29.99340057;-90.25800323
35;airport;EWR;KEWR;Newark;Newark, Liberty;3;11000;17;40.69250107;-74.16870117
36;airport;CID;KCID;Cedar Rapids;The Eastern Iowa Airport;2;8600;869;41.88470078;-91.71080017
37;airport;HNL;PHNL;Honolulu;Honolulu International Airport;4;12312;13;21.31870079;-157.9219971
38;airport;HOU;KHOU;Houston;Houston Hobby;4;7602;46;29.64539909;-95.27890015
39;airport;ELP;KELP;El Paso;El Paso International Airport;3;12020;3961;31.80719948;-106.3779984
40;airport;SJU;TJSJ;San Juan;Puerto Rico, Luis Munoz International Airport;2;10400;9;18.43939972;-66.00180054
41;airport;CLE;KCLE;Cleveland;Cleveland, Hopkins International Airport;3;9956;799;41.4117012;-81.84980011
42;airport;OAK;KOAK;Oakland;Oakland;4;10520;9;37.72129822;-122.2210007
43;airport;TUS;KTUS;Tucson;Tucson International Airport;3;10996;2643;32.11610031;-110.9410019
44;airport;SAF;KSAF;Santa Fe;Santa Fe;3;8366;6348;35.61709976;-106.0889969
45;airport;PHL;KPHL;Philadelphia;Philadelphia International Airport;4;10506;36;39.87189865;-75.2410965
46;airport;DTW;KDTW;Detroit;Detroit Metropolitan, Wayne County;6;12003;645;42.21239853;-83.35340118
47;airport;YYZ;CYYZ;Toronto;Toronto Pearson International Airport;5;11120;569;43.67720032;-79.63059998
48;airport;YVR;CYVR;Vancouver;Vancouver;3;11500;14;49.19390106;-123.1839981
49;airport;LHR;EGLL;London;London Heathrow;2;12799;83;51.47060013;-0.461941004
50;airport;LGW;EGKK;London;London Gatwick;2;10364;202;51.14810181;-0.190277994
51;airport;CDG;LFPG;Paris;Paris Charles de Gaulle;4;13829;392;49.01279831;2.549999952
52;airport;FRA;EDDF;Frankfurt;Frankfurt am Main;4;13123;364;50.02640152;8.543129921
53;airport;HEL;EFHK;Helsinki;Helsinki Ventaa;3;11286;179;60.31719971;24.9633007
54;airport;NRT;RJAA;Tokyo;Tokyo Narita;2;13123;141;35.76470184;140.3860016
55;airport;SYD;YSSY;Sydney;Sydney Kingsford Smith;3;12999;21;-33.94609833;151.177002
56;airport;SIN;WSSS;Singapore;Singapore, Changi International Airport;3;13123;22;1.350190043;103.9940033
57;airport;MEL;YMML;Melbourne;Melbourne International Airport;2;11998;434;-37.6733017;144.8430023
58;airport;DXB;OMDB;Dubai;Dubai International Airport;2;13124;62;25.25279999;55.36439896
59;airport;DEL;VIDP;New Delhi;Indira Gandhi International Airport;3;14534;777;28.56649971;77.10310364
60;airport;DUB;EIDW;Dublin;Dublin International Airport;2;8652;242;53.42129898;-6.270070076
61;airport;HKG;VHHH;Hong Kong;Hong Kong - Chek Lap Kok International Airport;2;12467;28;22.30890083;113.9150009
62;airport;PER;YPPH;Perth;Perth International Airport;2;11299;67;-31.94029999;115.9670029
63;airport;AKL;NZAA;Auckland;Auckland International Airport;2;11926;23;-37.0080986;174.7920074
64;airport;PEK;ZBAA;Beijing;Beijing Capital International Airport;3;12468;116;40.08010101;116.5849991
65;airport;WLG;NZWN;Wellington;Wellington International Airport;1;6352;41;-41.32720184;174.8049927
66;airport;BNE;YBBN;Brisbane;Brisbane International Airport;2;11680;13;-27.38419914;153.1170044
67;airport;PVG;ZSPD;Shanghai;Shanghai - Pudong International Airport;2;13123;13;31.14340019;121.8050003
68;airport;FCO;LIRF;Rome;Leonardo da Vinci-Fiumicino International Airport;3;12795;15;41.80450058;12.25080013
69;airport;BOM;VABB;Mumbai;Mumbai, Chhatrapati Shivaji International Airport;2;11302;39;19.08869934;72.86789703
70;airport;AMS;EHAM;Amsterdam;Amsterdam Airport Schiphol;6;12467;-11;52.30860138;4.76388979
71;airport;KUL;WMKK;Kuala Lumpur;Kuala Lumpur International Airport;3;13288;69;2.745579958;101.7099991
72;airport;PRG;LKPR;Prague;Prague, Ruzyne International Airport;2;12189;1247;50.10079956;14.26000023
73;airport;BCN;LEBL;Barcelona;Barcelona International Airport;3;11654;12;41.29710007;2.078459978
74;airport;MAD;LEMD;Madrid;Adolfo Suarez Barajas Airport International Airport;3;13711;1998;40.4936;-3.56676
75;airport;VIE;LOWW;Vienna;Vienna International Airport;2;11811;600;48.11029816;16.56970024
76;airport;ZRH;LSZH;Zurich;Zurich-Kloten Airport;3;12139;1416;47.46469879;8.54916954
77;airport;GVA;LSGG;Geneva;Geneva-Cointrin International Airport;2;12795;1411;46.23809814;6.108950138
78;airport;YOW;CYOW;Ottawa;Ottawa Macdonald-Cartier International Airport;3;10000;374;45.32249832;-75.66919708
79;airport;BRU;EBBR;Brussels;Brussels Airport;3;11936;184;50.90140152;4.48443985
80;airport;MUC;EDDM;Munich;Munich International Airport;2;13123;1487;48.35380173;11.78610039
81;airport;CHC;NZCH;Christchurch;Christchurch International Airport;3;10787;123;-43.48939896;172.5319977
82;airport;CBR;YSCB;Canberra;Canberra International Airport;2;10771;1886;-35.30690002;149.1950073
83;airport;RSW;KRSW;Fort Myers;Southwest Florida International Airport;1;12000;30;26.53619957;-81.75520325
84;airport;MAN;EGCC;Manchester;Manchester Airport;2;10000;257;53.35369873;-2.274950027
85;airport;YUL;CYUL;Montreal;Montreal / Pierre Elliott Trudeau International Airport;3;11000;118;45.47060013;-73.74079895
86;airport;YEG;CYEG;Edmonton;Edmonton International Airport;2;11000;2373;53.30970001;-113.5800018
87;airport;CGN;EDDK;Cologne;Cologne Bonn Airport;3;12516;302;50.86589813;7.142739773
88;airport;LCY;EGLC;London;London City Airport;1;4948;19;51.505278;0.055278
89;airport;GOT;ESGG;Gothenburg;Gothenburg-Landvetter Airport;1;10823;506;57.66279984;12.27980042
90;airport;VCE;LIPZ;Venice;Venice Marco Polo Airport;2;10827;7;45.50529861;12.3519001
91;airport;SNN;EINN;Shannon;Shannon Airport;5;10495;46;52.70199966;-8.924819946
92;airport;OSL;ENGM;Oslo;Oslo Gardermoen Airport;2;11811;681;60.19390106;11.10039997
93;airport;ARN;ESSA;Stockholm;Stockholm-Arlanda Airport;3;10830;137;59.65190125;17.91860008
94;airport;STN;EGSS;London;London Stansted Airport;1;10003;348;51.88499832;0.234999999
95;airport;EMA;EGNX;Nottingham;East Midlands Airport;1;9491;306;52.83110046;-1.328060031
96;airport;EDI;EGPH;Edinburgh;Edinburgh Airport;3;8400;135;55.95000076;-3.372499943
97;airport;GLA;EGPF;Glasgow;Glasgow International Airport;2;8720;26;55.87189865;-4.433060169
98;airport;LPL;EGGP;Liverpool;Liverpool John Lennon Airport;1;7500;80;53.33359909;-2.849720001
99;airport;YYC;CYYC;Calgary;Calgary International Airport;3;12675;3557;51.11389923;-114.0199966
100;airport;MNL;RPLL;Manila;Manila, Ninoy Aquino International Airport;2;12261;75;14.50860024;121.0199966
101;airport;BKK;VTBS;Bankok;Suvarnabhumi Bangkok International Airport;2;13123;5;13.68109989;100.7470016
102;airport;DME;UUDD;Moscow;Moscow, Domodedovo International Airport;3;12448;588;55.40879822;37.90629959
103;airport;SVO;UUEE;Moscow;Moscow, Sheremetyevo International Airport;2;12139;622;55.97259903;37.41460037
104;airport;ITM;RJOO;Osaka;Osaka International Airport;2;9840;50;34.78549957;135.4380035
105;airport;HND;RJTT;Tokyo;Tokyo Haneda International Airport;4;9840;35;35.5522995;139.7799988
106;airport;DOH;OTHH;Doha;Doha, Hamad International Airport;2;15912;13;25.273056;51.608056
107;airport;ORY;LFPO;Paris;Paris, Orly Airport;3;11975;291;48.72529984;2.359440088
108;airport;NCE;LFMN;Nice;Nice-Cote d'Azur Airport;2;9712;12;43.65840149;7.215869904
109;airport;MXP;LIMC;Milan;Milan, Malpensa International Airport;2;12861;768;45.63059998;8.728110313
110;airport;ATH;LGAV;Athens;Athens, Eleftherios Venizelos International Airport;2;13123;308;37.93640137;23.94449997
111;airport;ZAG;LDZA;Zagreb;Zagreb Airport;1;10669;353;45.74290085;16.06879997
112;airport;BUD;LHBP;Budapest;Budapest Ferenc Liszt International Airport;2;12162;495;47.43690109;19.25559998
113;airport;ALC;LEAL;Alicante;Alicante International Airport;1;9842;142;38.28219986;-0.558156013
114;airport;BIO;LEBB;Bilbao;Bilbao Airport;2;8530;138;43.30110168;-2.910609961
115;airport;IBZ;LEIB;Ibiza;Ibiza Airport;1;9186;24;38.8728981;1.37311995
116;airport;MAH;LEMH;Menorca;Menorca Airport;2;7710;302;39.86259842;4.218649864
117;airport;CCJ;VOCL;Calicut;Calicut International Airport;1;9383;342;11.13679981;75.95529938
118;airport;HYD;VOHS;Hyderabad;Hyderabad, Rajiv Gandhi International Airport;1;13976;2024;17.23131752;78.42985535
119;airport;MAA;VOMM;Chennai;Chennai International Airport;2;12001;52;12.99000549;80.16929626
120;airport;CCU;VECC;Kolkata;Kolkata, Netaji Subhash Chandra Bose International Airport;2;11900;16;22.65469933;88.44670105
121;airport;BLR;VOBL;Bengaluru;Bengaluru International Airport;1;13123;3000;13.19789982;77.70629883
122;airport;ICN;RKSI;Seoul;Seoul, Incheon International Airport;3;13000;23;37.46910095;126.4509964
123;airport;YYT;CYYT;St. John's;St. John's International Airport;3;8502;461;47.61859894;-52.75189972
124;airport;TFN;GCXO;Tenerife;Tenerife Norte Airport;1;11155;2076;28.48270035;-16.34149933
125;airport;CPT;FACT;Cape Town;Cape Town International Airport;2;10502;151;-33.96480179;18.60169983
126;airport;JNB;FAJS;Johannesburg;Johannesburg, OR Tambo International Airport;2;14495;5558;-26.13920021;28.24600029
127;airport;DUR;FALE;Durban;Durban, King Shaka International Airport;1;12139;295;-29.61444444;31.11972222
128;airport;NBO;HKJK;Nairobi;Nairobi, Jomo Kenyatta International Airport;1;13507;5330;-1.319239974;36.92779922
129;airport;MBA;HKMO;Mombasa;Mombasa Moi International Airport;2;10991;200;-4.034830093;39.59420013
130;airport;MVD;SUMU;Montevideo;Montevideo, Carrasco International /General C L Berisso Airport;3;10499;105;-34.83840179;-56.03079987
131;airport;GIG;SBGL;Rio de Janeiro;Rio de Janeiro ,Galeao Antonio Carlos Jobim International Airport;2;13123;28;-22.80999947;-43.25055695
132;airport;GRU;SBGR;Sao Paulo;Sao Paulo, Guarulhos - Governador Andras Franco Montoro International Airport;1;12139;2459;-23.43555641;-46.47305679
133;airport;EZE;SAEZ;Buenos Aires;Buenos Aires, Ministro Pistarini International Airport;2;10187;67;-34.8222;-58.5358
134;airport;LIM;SPIM;Lima;Lima, Jorge Chavez International Airport;1;11506;113;-12.02190018;-77.11430359
135;airport;SCL;SCEL;Santiago;Santiago, Comodoro Arturo Merino Benitez International Airport;2;12203;1555;-33.39300156;-70.78579712
136;airport;MEX;MMMX;Mexico City;Mexico City, Licenciado Benito Juarez International Airport;2;12966;7316;19.43630028;-99.07209778
137;airport;KIN;MKJP;Kingston;Kingston, Norman Manley International Airport;1;8900;10;17.93569946;-76.78749847
138;airport;TLH;KTLH;Tallahassee;Tallahassee Regional Airport;2;8000;81;30.39649963;-84.35030365
139;airport;LCA;LCLK;Larnaca;Larnaca International Airport;1;9776;8;34.87509918;33.62490082
140;airport;WAW;EPWA;Warsaw;Warsaw Chopin Airport;2;12106;362;52.16569901;20.96710014
141;airport;MLA;LMML;Luqa;Malta International Airport;2;11627;300;35.857498;14.4775
142;airport;SOF;LBSF;Sofia;Sofia Airport;1;9186;1742;42.69669342;23.41143608
143;airport;BEG;LYBE;Belgrade;Belgrade Nikola Tesla Airport;1;11155;335;44.81840134;20.3090992
144;airport;CAI;HECA;Cairo;Cairo International Airport;3;13124;382;30.12190056;31.40559959
145;airport;ADD;HAAB;Addis Ababa;Addis Ababa Bole International Airport;2;12467;7630;8.977890015;38.79930115
146;airport;TLV;LLBG;Tel Aviv;Tel Aviv, Ben Gurion International Airport;3;13327;135;32.01139832;34.88669968
147;airport;PIT;KPIT;Pittsburgh;Pittsburgh International Airport;4;11500;1203;40.49150085;-80.23290253
148;airport;PWM;KPWM;Portland;Portland International Jetport Airport;2;7200;76;43.64619827;-70.30930328
149;airport;PDX;KPDX;Portland;Portland International Airport;3;11000;31;45.58869934;-122.5979996
150;airport;OKC;KOKC;Oaklahoma City;Oaklahoma City, Will Rogers World Airport;4;9800;1295;35.39310074;-97.60070038
151;airport;ONT;KONT;Ontario;Ontario International Airport;2;12198;944;34.05599976;-117.6009979
152;airport;ROC;KROC;Rochester;Greater Rochester International Airport;3;8001;559;43.1189003;-77.67240143
153;airport;RST;KRST;Rochester;Rochester International Airport;2;9033;1317;43.90829849;-92.5
154;airport;KWI;OKBK;Kuwait;Kuwait International Airport;2;11483;206;29.22660065;47.96889877
155;airport;PNH;VDPP;Phnom Penh;Phnom Penh International Airport;1;9843;40;11.54660034;104.8440018
156;airport;AYQ;YAYE;Ayers Rock;Ayers Rock Connellan Airport;1;8527;1626;-25.18610001;130.9759979
157;airport;ASP;YBAS;Alice Springs;Alice Springs Airport;2;7999;1789;-23.80669975;133.9019928
158;airport;OOL;YBCG;Gold Coast;Gold Coast Airport;2;6699;21;-28.1644001;153.5050049
159;airport;FAI;PAFA;Fairbanks;Fairbanks International Airport;4;11800;439;64.81510162;-147.8560028
160;airport;CNS;YBCS;Cairns;Cairns International Airport;2;10489;10;-16.88579941;145.7550049
161;airport;IST;LTBA;Istanbul;Ataturk International Airport;3;9843;163;41.275278;28.751944
162;airport;BAH;OBBI;Manama;Bahrain International Airport;2;12979;6;26.27079964;50.63359833
163;airport;YHZ;CYHZ;Halifax;Halifax / Stanfield International Airport;2;10500;477;44.88079834;-63.50859833
164;airport;AUH;OMAA;Abu Dhabi;Abu Dhabi International Airport;2;13452;88;24.43300056;54.65110016
165;airport;SGN;VVTS;Ho Chi Minh City;Ho Chi Minh City, Tan Son Nhat International Airport;2;12468;33;10.81879997;106.6520004
166;airport;YWG;CYWG;Winnipeg;Winnipeg / James Armstrong Richardson International Airport;3;11000;783;49.90999985;-97.23989868
167;airport;HAM;EDDH;Hamburg;Hamburg Airport;2;12028;53;53.63040161;9.988229752
168;airport;STR;EDDS;Stuttgart;Stuttgart Airport;1;10974;1276;48.68989944;9.221960068
169;airport;GOA;LIMJ;Genoa;Genoa Cristoforo Colombo Airport;1;9564;13;44.41329956;8.837499619
170;airport;NAP;LIRN;Naples;Naples International Airport;1;8622;294;40.88600159;14.29080009
171;airport;PSA;LIRP;Pisa;Pisa International Airport;2;9820;6;43.68389893;10.3927002
172;airport;TRN;LIMF;Turin;Turin Airport;1;10827;989;45.20080185;7.64963007
173;airport;BLQ;LIPE;Bologna;Bologna Guglielmo Marconi Airport;1;9186;123;44.53540039;11.2887001
174;airport;TSF;LIPH;Venice;Venice, Treviso-Sant Angelo Airport;1;7941;59;45.64839935;12.19439983
175;airport;VRN;LIPX;Verona;Verona Villafranca Airport;1;10064;239;45.39569855;10.88850021
176;airport;NTE;LFRS;Nantes;Nantes Atlantique Airport;1;9514;90;47.15319824;-1.610730052
177;airport;CPH;EKCH;Copenhagen;Copenhagen Kastrup Airport;3;11811;17;55.61790085;12.65600014
178;airport;CLT;KCLT;Charlotte;Charlotte Douglas International Airport;4;10000;748;35.2140007;-80.94309998
179;airport;LUX;ELLX;Luxembourg;Luxembourg-Findel International Airport;1;13123;1234;49.62659836;6.211520195
180;airport;CUN;MMUN;Cancun;Cancun International Airport;2;11483;22;21.03650093;-86.87709808
181;airport;PSP;KPSP;Palm Springs;Palm Springs International Airport;2;10000;477;33.82970047;-116.5070038
182;airport;MEM;KMEM;Memphis;Memphis International Airport;4;11120;341;35.04240036;-89.97669983
183;airport;CVG;KCVG;Cincinnati;Cincinnati Northern Kentucky International Airport;4;12000;896;39.04880142;-84.6678009
184;airport;IND;KIND;Indianapolis;Indianapolis International Airport;3;11200;797;39.71730042;-86.29440308
185;airport;MCI;KMCI;Kansas City;Kansas City International Airport;3;10801;1026;39.29759979;-94.71389771
186;airport;DAL;KDAL;Dallas;Dallas Love Field;3;8800;487;32.8470993;-96.85179901
187;airport;STL;KSTL;St Louis;Lambert St Louis International Airport;4;11019;618;38.74869919;-90.37000275
188;airport;ABQ;KABQ;Albuquerque;Albuquerque International Sunport Airport;4;13793;5355;35.04019928;-106.6090012
189;airport;MKE;KMKE;Milwaukee;General Mitchell International Airport;5;9690;723;42.94720078;-87.89659882
190;airport;MDW;KMDW;Chicago;Chicago Midway International Airport;5;6522;620;41.7859993;-87.75240326
191;airport;HRO;KHRO;Harrison;Harrison, Boone County Airport;1;6161;1365;36.26150131;-93.15470123
192;airport;SLN;KSLN;Salina;Salina Municipal Airport;4;12300;1288;38.79100037;-97.65219879
193;airport;OMA;KOMA;Omaha;Eppley Airfield;3;9502;984;41.30319977;-95.89409637
194;airport;TUL;KTUL;Tulsa;Tulsa International Airport;3;9999;677;36.19839859;-95.88809967
195;airport;PVR;MMPR;Puerto Vallarta;Puerto Vallarta, Licenciado Gustavo Diaz Ordaz International Airport;1;10171;23;20.68009949;-105.2539978
196;airport;OGG;PHOG;Kahului;Maui, Kahului Airport;2;6995;54;20.89859962;-156.4299927
197;airport;MCY;YBSU;Maroochydore;Sunshine Coast Airport;2;5896;15;-26.60330009;153.0910034
198;airport;DUS;EDDL;Dusseldorf;Dusseldorf International Airport;2;9842;147;51.28950119;6.7667799
199;airport;GUM;PGUM;Hagta;Antonio B. Won Pat International Airport;2;10015;298;13.48340034;144.7960052
200;airport;TXL;EDDT;Berlin;Berlin, Tegel International Airport;2;9918;122;52.55970001;13.2876997
201;airport;CMB;VCBI;Colombo;Colombo, Bandaranaike International Airport;1;10991;30;7.180759907;79.88410187
202;airport;LIS;LPPT;Lisbon;Lisbon Portela Airport;1;12484;374;38.78129959;-9.135919571
203;airport;GIB;LXGB;Gibraltar;Gibraltar Airport;1;6000;15;36.15119934;-5.34965992
204;airport;TUN;DTTA;Tunis;Tunis Carthage International Airport;2;10499;22;36.85100174;10.22719955
205;airport;TPE;RCTP;Taipei;Taiwan Taoyuan International Airport;2;12008;106;25.07769966;121.2330017
206;airport;LTN;EGGW;London;London Luton Airport;1;7086;526;51.87469864;-0.368333012
207;airport;KTM;VNKT;Kathmandu;Kathmandu, Tribhuvan International Airport;1;10007;4390;27.69659996;85.35910034
208;airport;NAS;MYNN;Nassau;Nassau, Lynden Pindling International Airport;2;11353;16;25.03899956;-77.46620178
209;airport;FPO;MYGF;Freeport;Freeport, Grand Bahama International Airport;1;11019;7;26.55870056;-78.69560242
210;airport;GGT;MYEF;George Town;George Town, Exuma International Airport;1;7051;9;23.56259918;-75.87799835
211;airport;EYW;KEYW;Key West;Key West International Airport;1;4801;3;24.55610085;-81.75959778
212;airport;FUK;RJFF;Fukuoka;Fukuoka Airport;1;9186;32;33.58589935;130.451004
213;airport;KIX;RJBB;Osaka;Osaka, Kansai International Airport;2;13123;26;34.4272995;135.2440033
214;airport;CTS;RJCC;Sapporo;Sapporo, New Chitose Airport;2;9840;82;42.77519989;141.6920013
215;airport;JED;OEJN;Jeddah;King Abdulaziz International Airport;3;13123;48;21.67959976;39.15650177
216;airport;MCT;OOMS;Muscat;Muscat International Airport;2;11775;48;23.59329987;58.28440094
217;airport;KEF;BIKF;Reykjavik;Reykjavik, Keflavik International Airport;2;10056;171;63.98500061;-22.60560036
218;airport;BGI;TBPB;Bridgetown;Bridgetown, Sir Grantley Adams International Airport;1;11000;169;13.07460022;-59.49250031
219;airport;ANU;TAPA;St. George;V.C. Bird International Airport;1;9003;62;17.1367;-61.792702
220;airport;STT;TIST;Charlotte Amalie;St. Thomas, Cyril E. King Airport;1;7000;23;18.33729935;-64.9733963
221;airport;BDA;TXKF;Hamilton;Bermuda, L.F. Wade International International Airport;1;9713;12;32.36399841;-64.67870331
222;airport;TAB;TTCP;Scarborough;Tobago-Crown Point Airport;1;9002;38;11.14970016;-60.8321991
223;airport;POS;TTPP;Port of Spain;Port of Spain, Piarco International Airport;1;10500;58;10.59539986;-61.33720016
224;airport;LOS;DNMM;Lagos;Lagos,Murtala Muhammed International Airport;1;11153;135;6.577370167;3.321160078
225;airport;MBJ;MKJS;Montego Bay;Montego Bay, Sangster International Airport;1;8735;4;18.50370026;-77.91339874
226;airport;HRE;FVHA;Harare;Harare International Airport;1;15502;4887;-17.93180084;31.09280014
227;airport;LIT;KLIT;Little Rock;Little Rock, Bill and Hillary Clinton National Airport/Adams Field;3;8273;262;34.72940063;-92.22429657
228;airport;LPA;GCLP;Gran Canaria;Gran Canaria Airport;2;10171;78;27.93190002;-15.38659954
229;airport;SOU;EGHI;Southampton;Southampton Airport;1;5653;44;50.95029831;-1.35679996
230;airport;PMI;LEPA;Palma De Mallorca;Palma De Mallorca Airport;2;10728;27;39.55170059;2.738810062
231;airport;ADL;YPAD;Adelaide;Adelaide International Airport;2;10171;20;-34.94499969;138.5310059
232;airport;DRW;YPDN;Darwin;Darwin International Airport;2;11004;103;-12.41469955;130.8769989
233;airport;CUR;TNCC;Curacao;Curacao, Hato International Airport;1;11188;29;12.18889999;-68.95980072
234;airport;DPS;WADD;Denpasar;Bali - Ngurah Rai International Airport;2;9790;14;-8.748169899;115.1669998
235;airport;CGK;WIII;Jakarta;Soekarno-Hatta International Airport;2;12008;34;-6.12556982;106.6559982
236;airport;BON;TNCB;Kralendijk;Bonaire, Flamingo International Airport;1;9449;20;12.13099957;-68.26850128
237;airport;AUA;TNCA;Oranjestad;Aruba, Queen Beatrix International Airport;1;9000;60;12.50139999;-70.01519775
238;airport;ORF;KORF;Norfolk;Norfolk International Airport;2;9001;26;36.89459991;-76.20120239
239;airport;JAX;KJAX;Jacksonville;Jacksonville International Airport;2;10000;30;30.49410057;-81.68789673
240;airport;PVD;KPVD;Providence;Providence, Theodore Francis Green State Airport;2;7166;55;41.73260117;-71.42040253
241;airport;PUJ;MDPC;Punta Cana;Punta Cana International Airport;1;10171;47;18.56739998;-68.36340332
242;airport;MDT;KMDT;Harrisburg;Harrisburg International Airport;2;10001;310;40.19350052;-76.76339722
243;airport;SJO;MROC;San Jose;San Jose, Juan Santamaria International Airport;1;9882;3021;9.993860245;-84.20880127
244;airport;SMF;KSMF;Sacramento;Sacramento International Airport;2;8601;27;38.69540024;-121.5910034
245;airport;RTB;MHRO;Roatan Island;Coxen Hole, Juan Manuel Galvez International Airport;1;7349;18;16.31679916;-86.52300262
246;airport;TGU;MHTG;Tegucigalpa;Tegucigalpa, Toncontin International Airport;1;6112;3294;14.06089973;-87.21720123
247;airport;LXR;HELX;Luxor;Luxor International Airport;1;9843;294;25.67099953;32.70660019
248;airport;RIX;EVRA;Riga;Riga International Airport;1;10499;36;56.92359924;23.97109985
249;airport;RUH;OERK;Riyadh;Riyadh, King Khaled International Airport;2;13796;2049;24.95759964;46.69879913
250;airport;CAN;ZGGG;Guangzhou;Guangzhou Baiyun International Airport;2;12467;50;23.39240074;113.2990036
251;airport;AGP;LEMG;Malaga;Malaga Airport;2;10500;53;36.67490005;-4.499110222
252;airport;FNC;LPMA;Funchal;Funchal, Madeira Airport;1;9110;192;32.69789886;-16.77449989
253;airport;LBA;EGNM;Leeds;Leeds Bradford Airport;1;7382;681;53.86589813;-1.660570025
254;airport;ABZ;EGPD;Aberdeen;Aberdeen Dyce Airport;4;6001;215;57.20190048;-2.197779894
255;airport;AYT;LTAI;Antalya;Antalya International Airport;3;11155;177;36.89870071;30.80050087
256;airport;ISB;OPRN;Islamabad;Islamabad, Benazir Bhutto International Airport;1;10785;1668;33.61669922;73.09919739
257;airport;JER;EGJJ;Saint Helier;Jersey Airport;1;5597;277;49.207901;-2.195509911
258;airport;ZTH;LGZA;Zakynthos;Zakynthos, Dionysios Solomos Airport;1;7310;15;37.75090027;20.88430023
259;airport;RHO;LGRP;Rhodes;Rhodes, Diagoras Airport;1;10846;17;36.40539932;28.08620071
260;airport;BRS;EGGD;Bristol;Bristol International Airport;1;6598;622;51.38270187;-2.719089985
261;airport;NCL;EGNT;Newcastle;Newcastle Airport;1;7642;266;55.03749847;-1.691669941
262;airport;GCI;EGJB;Saint Peter Port;Guernsey Airport;1;4800;336;49.43500137;-2.601969957
263;airport;COS;KCOS;Colorado Springs;City of Colorado Springs Municipal Airport;3;13501;6187;38.80580139;-104.7009964
264;airport;HSV;KHSV;Huntsville;Huntsville International Carl T Jones Field;2;12600;629;34.6371994;-86.77510071
265;airport;BHM;KBHM;Birmingham;Birmingham-Shuttlesworth International Airport;2;10000;650;33.56290054;-86.75350189
266;airport;YQB;CYQB;Quebec City;Quebec Jean Lesage International Airport;2;9000;244;46.79109955;-71.39330292
267;airport;RAP;KRAP;Rapid City;Rapid City Regional Airport;2;8701;3204;44.04529953;-103.0569992
268;airport;SDF;KSDF;Louisville;Louisville International Standiford Field;3;10850;501;38.17440033;-85.73600006
269;airport;BUF;KBUF;Buffalo;Buffalo Niagara International Airport;2;8102;728;42.94049835;-78.73220062
270;airport;SHV;KSHV;Shreveport;Shreveport Regional Airport;2;8351;258;32.44660187;-93.82559967
271;airport;BOI;KBOI;Boise;Boise Air Terminal/Gowen field;3;10000;2871;43.56439972;-116.2229996
272;airport;LIH;PHLI;Lihue;Kuai, Lihue Airport;2;6500;153;21.97599983;-159.3390045
273;airport;LBB;KLBB;Lubbock;Lubbock Preston Smith International Airport;3;11500;3282;33.66360092;-101.822998
274;airport;EIN;EHEH;Eindhoven;Eindhoven Airport;1;9843;74;51.45009995;5.374529839
275;airport;SVQ;LEZL;Sevilla;Sevilla Airport;1;11024;112;37.41799927;-5.893109798
276;airport;BSL;LFSB;Basle;EuroAirport Basle-Mulhouse-Freiburg Airport;2;12795;885;47.58959961;7.529910088
277;airport;ECP;KECP;Panama City Beach;Northwest Florida Beaches International Airport;1;10000;69;30.3417;-85.7973
278;airport;HRL;KHRL;Harlingen;Harlingen, Valley International Airport;3;8301;36;26.22850037;-97.65440369
279;airport;DBV;LDDU;Dubrovnik;Dubrovnik Airport;1;10827;527;42.56140137;18.26819992
280;airport;RNO;KRNO;Reno;Reno Taoe International Airport;3;11002;4415;39.49909973;-119.7679977
281;airport;CMH;KCMH;Columbus;Columbus, Port Columbus International Airport;2;10125;815;39.9980011;-82.89189911
282;airport;IDA;KIDA;Idaho Falls;Idaho Falls Regional Airport;2;9002;4744;43.51459885;-112.0709991
283;airport;ALB;KALB;Albany;Albany International Airport;2;7200;285;42.74829865;-73.80169678
284;airport;SVG;ENZV;Stavanger;Stavanger Airport;2;9369;29;58.87670135;5.63778019
285;airport;HKT;VTSP;Phuket;Phuket International Airport;1;9843;82;8.113200188;98.31690216
286;airport;AMM;OJAI;Amman;Queen Alia International Airport;2;12008;2395;31.72260094;35.99319839
287;airport;BGO;ENBR;Bergen;Bergen Airport Flesland;1;9810;170;60.29339981;5.218140125
288;airport;ICT;KICT;Wichita;Wichita Mid Continent Airport;3;10301;1333;37.64989853;-97.43309784
289;airport;MAF;KMAF;Midland;Midland International Airport;4;9501;2871;31.94249916;-102.2020035
290;airport;YXE;CYXE;Saskatoon;Saskatoon John G. Diefenbaker International Airport;2;8300;1653;52.17079926;-106.6999969
291;airport;BDL;KBDL;Hartford;Bradley International Airport;3;9510;173;41.93889999;-72.68319702
292;airport;BIL;KBIL;Billings;Billings Logan International Airport;3;10518;3652;45.80770111;-108.5429993
293;airport;SXM;TNCM;Sint Martin;Sint Martin, Princess Juliana International Airport;2;7708;13;18.04100037;-63.10889816
294;airport;NAN;NFFN;Nadi;Fiji, Nadi International Airport;2;10739;59;-17.7553997;177.4429932
295;airport;SGF;KSGF;Springfield;Springfield Branson National Airport;2;8000;1268;37.24570084;-93.38860321
296;airport;RIC;KRIC;Richmond;Richmond International Airport;3;9003;167;37.50519943;-77.31970215
297;airport;CCS;SVMI;Caracas;Simon Bolivar International Airport;2;11483;235;10.60311699;-66.99058533
298;airport;GYE;SEGU;Guayaquil;Jose Joaquin de Olmedo International Airport;1;9154;19;-2.15741992;-79.88359833
299;airport;NKG;ZSNJ;Nanjing;Nanjing Lukou Airport;1;11811;49;31.74200058;118.8619995
300;airport;TXK;KTXK;Texarkana;Texarkana Regional Webb Field;2;6601;390;33.45370102;-93.99099731
301;airport;PIA;KPIA;Peoria;General Wayne A. Downing Peoria International Airport;2;10104;660;40.66419983;-89.69329834
302;airport;TLL;EETN;Tallinn;Tallinn Airport;1;10072;131;59.41329956;24.83279991
303;airport;ALG;DAAG;Algiers;Algiers, Houari Boumediene Airport;2;11483;82;36.69100189;3.215409994
304;airport;ITO;PHTO;Hilo;Hilo International Airport;2;9800;38;19.72139931;-155.0480042
305;airport;LEX;KLEX;Lexington;Blue Grass Airport;1;7003;979;38.03649902;-84.60590363
306;airport;GUA;MGGT;Guatemala City;La Aurora Airport;1;9800;4952;14.58329964;-90.52749634
307;airport;ISP;KISP;Islip;Long Island Mac Arthur Airport;4;7006;99;40.79520035;-73.10019684
308;airport;IAG;KIAG;Niagara Falls;Niagara Falls International Airport;3;9829;589;43.1072998;-78.94619751
309;airport;SWF;KSWF;Newburgh;Stewart International Airport;2;11818;491;41.5041008;-74.10479736
310;airport;BIM;MYBS;South Bimini;South Bimini Airport;1;5430;10;25.69989967;-79.26470184
311;airport;ORK;EICK;Cork;Cork Airport;2;6998;502;51.84130096;-8.491109848
312;airport;HAV;MUHA;Havana;Jose Marti International Airport;1;13123;210;22.98920059;-82.40910339
313;airport;WRO;EPWR;Wroclaw;Copernicus Wroclaw Airport;1;8202;404;51.10269928;16.88579941
314;airport;CRP;KCRP;Corpus Christi;Corpus Christi International Airport;2;7508;44;27.77039909;-97.50119781
315;airport;KHI;OPKC;Karachi;Jinnah International Airport;2;11155;100;24.90649986;67.16079712
316;airport;LHE;OPLA;Lahore;Alama Iqbal International Airport;2;11024;712;31.52160072;74.4036026
317;airport;ASB;UTAA;Ashgabat;Ashgabat Airport;3;12467;692;37.98680115;58.36100006
318;airport;VKO;UUWW;Moscow;Vnukovo International Airport;2;10039;685;55.59149933;37.26150131
319;airport;SPU;LDSP;Split;Split Airport;1;8366;79;43.53889847;16.29800034
320;airport;TSE;UACC;Astana;Astana International Airport;1;11484;1165;51.02220154;71.46690369
321;airport;GYD;UBBB;Baku;Heydar Aliyev International Airport;2;10499;10;40.46749878;50.04669952
322;airport;JAI;VIJP;Jaipur;Jaipur International Airport;2;9177;1263;26.82419968;75.81220245
323;airport;ACC;DGAA;Accra;Kotoka International Airport;1;11165;205;5.6051898;-0.166786
324;airport;BHD;EGAC;Belfast;George Best Belfast City Airport;1;6001;15;54.61809921;-5.872499943
325;airport;EBB;HUEN;Kampala;Entebbe International Airport;2;12000;3782;0.042385999;32.44350052
326;airport;HAJ;EDDV;Hannover;Hannover Airport;3;12467;183;52.46110153;9.685079575
327;airport;LIN;LIML;Milan;Linate Airport;2;8005;353;45.44509888;9.276740074
328;airport;LYS;LFLL;Lyon;Lyon Saint-Exupery Airport;2;11483;821;45.72639847;5.090829849
329;airport;MRS;LFML;Marseille;Marseille Provence Airport;2;11483;74;43.43927192;5.221424103
330;airport;OTP;LROP;Bucharest;Henri Coanda International Airport;2;11484;314;44.57220078;26.10219955
331;airport;RTM;EHRD;Rotterdam;Rotterdam Airport;1;7218;-15;51.95690155;4.437220097
332;airport;CMN;GMMN;Casablanca;Mohammed V International Airport;2;12205;656;33.36750031;-7.589970112
333;airport;TNG;GMTT;Tangier;Ibn Batouta Airport;2;11483;62;35.72689819;-5.916890144
334;airport;ABV;DNAA;Abuja;Nnamdi Azikiwe International Airport;1;11842;1123;9.006790161;7.263169765
335;airport;ALA;UAAA;Almaty;Almaty Airport;1;14427;2234;43.35210037;77.04049683
336;airport;BEY;OLBA;Beirut;Beirut Rafic Hariri International Airport;3;12467;87;33.82089996;35.48839951
337;airport;CTU;ZUUU;Chengdu;Chengdu Shuangliu International Airport;1;11811;1625;30.57850075;103.9469986
338;airport;FAO;LPFR;Faro;Faro Airport;1;8169;24;37.01440048;-7.965909958
339;airport;FNA;GFLL;Freetown;Lungi International Airport;1;10498;84;8.616439819;-13.19550037
340;airport;JMK;LGMK;Mykonos Island;Mikonos Airport;1;6244;405;37.43510056;25.34810066
341;airport;JTR;LGSR;Santorini Island;Santorini Airport;2;6972;127;36.39920044;25.47929955
342;airport;KBP;UKBB;Kiev;Boryspil International Airport;2;13123;427;50.34500122;30.8946991
343;airport;RJK;LDRI;Rijeka;Rijeka Airport;2;8164;278;45.21689987;14.5703001
344;airport;TLS;LFBO;Toulouse/Blagnac;Toulouse-Blagnac Airport;2;11483;499;43.6291008;1.363819957
345;airport;LAD;FNLU;Luanda;Quatro de Fevereiro Airport;2;12190;243;-8.858369827;13.23120022
346;airport;LED;ULLI;St. Petersburg;Pulkovo Airport;2;12402;78;59.8003006;30.26250076
347;airport;OPO;LPPR;Porto;Francisco de Sa Carneiro Airport;1;11417;228;41.24810028;-8.681389809
348;airport;TIP;HLLT;Tripoli;Tripoli International Airport;2;11815;263;32.66350174;13.1590004
349;airport;DAC;VGHS;Dhaka;Dhaka / Hazrat Shahjalal International Airport;1;10500;30;23.843347;90.397783
350;airport;ZYL;VGSY;Sylhet;Osmany International Airport;1;9478;50;24.96319962;91.8667984
351;airport;LCG;LECO;Culleredo;A Coruna Airport;1;6365;326;43.30210114;-8.377260208
352;airport;TAS;UTTT;Tashkent;Tashkent International Airport;2;13123;1417;41.25790024;69.28119659
353;airport;IKA;OIIE;Tehran;Imam Khomeini International Airport;2;13940;3305;35.41609955;51.15219879
354;airport;MRU;FIMP;Port Louis;Sir Seewoosagur Ramgoolam International Airport;1;11056;186;-20.43020058;57.68360138
355;airport;SEZ;FSIA;Mahe Island;Seychelles International Airport;1;9800;10;-4.674339771;55.52180099
356;airport;ABI;KABI;Abilene;Abilene Regional Airport;3;7202;1791;32.41130066;-99.68190002
357;airport;ACT;KACT;Waco;Waco Regional Airport;2;6596;516;31.61129951;-97.23049927
358;airport;CLL;KCLL;College Station;Easterwood Field;3;7000;320;30.58860016;-96.36380005
359;airport;BMI;KBMI;Bloomington/Normal;Central Illinois Regional Airport at Bloomington-Normal;3;8000;871;40.47710037;-88.91590118
360;airport;BOG;SKBO;Bogota;El Dorado International Airport;2;12467;8361;4.70159;-74.1469
361;airport;BPT;KBPT;Beaumont/Port Arthur;Southeast Texas Regional Airport;2;6750;15;29.95079994;-94.02069855
362;airport;DSM;KDSM;Des Moines;Des Moines International Airport;2;9003;958;41.5340004;-93.6631012
363;airport;MYR;KMYR;Myrtle Beach;Myrtle Beach International Airport;1;9503;25;33.67969894;-78.92829895
364;airport;AEX;KAEX;Alexandria;Alexandria International Airport;2;9352;89;31.32740021;-92.54979706
365;airport;CZM;MMCZ;Cozumel;Cozumel International Airport;2;10165;15;20.5223999;-86.92559814
366;airport;AGU;MMAS;Aguascalientes;Jesus Teran International Airport;1;9843;6112;21.70560074;-102.3180008
367;airport;MTY;MMMY;Monterrey;General Mariano Escobedo International Airport;1;5909;1278;25.7784996;-100.1070023
368;airport;AMA;KAMA;Amarillo;Rick Husband Amarillo International Airport;2;13502;3607;35.2193985;-101.7060013
369;airport;BJX;MMLO;Silao;Del Bajio International Airport;1;11480;5956;20.99349976;-101.4810028
370;airport;BRO;KBRO;Brownsville;Brownsville South Padre Island International Airport;3;7400;22;25.90679932;-97.42590332
371;airport;BTR;KBTR;Baton Rouge;Baton Rouge Metropolitan, Ryan Field;3;7004;70;30.53319931;-91.14959717
372;airport;BZE;MZBZ;Belize City;Philip S. W. Goldson International Airport;1;7100;15;17.53910065;-88.30819702
373;airport;CAE;KCAE;Columbia;Columbia Metropolitan Airport;2;8601;236;33.93880081;-81.11949921
374;airport;CHA;KCHA;Chattanooga;Lovell Field;2;7400;683;35.03530121;-85.20379639
375;airport;CHS;KCHS;Charleston;Charleston Air Force Base-International Airport;2;9001;46;32.89860153;-80.04049683
376;airport;CMI;KCMI;Champaign/Urbana;University of Illinois Willard Airport;4;8100;755;40.03919983;-88.27809906
377;airport;COU;KCOU;Columbia;Columbia Regional Airport;2;6501;889;38.81809998;-92.21959686
378;airport;CRW;KCRW;Charleston;Yeager Airport;2;6302;981;38.37310028;-81.59320068
379;airport;DAY;KDAY;Dayton;James M Cox Dayton International Airport;3;10900;1009;39.90240097;-84.2193985
380;airport;CUU;MMCU;Chihuahua;General Roberto Fierro Villalobos International Airport;3;8530;4462;28.70289993;-105.9649963
381;airport;DRO;KDRO;Durango;Durango La Plata County Airport;1;9201;6685;37.1515007;-107.7539978
382;airport;EVV;KEVV;Evansville;Evansville Regional Airport;3;8021;418;38.03699875;-87.53240204
383;airport;FAR;KFAR;Fargo;Hector International Airport;3;9000;902;46.92070007;-96.81580353
384;airport;FAT;KFAT;Fresno;Fresno Yosemite International Airport;2;9217;336;36.77619934;-119.7180023
385;airport;FSD;KFSD;Sioux Falls;Joe Foss Field Airport;3;8999;1429;43.58200073;-96.74189758
386;airport;FSM;KFSM;Fort Smith;Fort Smith Regional Airport;2;8000;469;35.33660126;-94.36740112
387;airport;FWA;KFWA;Fort Wayne;Fort Wayne International Airport;3;12000;814;40.97850037;-85.19509888
388;airport;GCK;KGCK;Garden City;Garden City Regional Airport;2;7300;2891;37.92750168;-100.723999
389;airport;GDL;MMGL;Guadalajara;Don Miguel Hidalgo Y Costilla International Airport;2;13123;5016;20.52179909;-103.310997
390;airport;GGG;KGGG;Longview;East Texas Regional Airport;2;10000;365;32.38399887;-94.71150208
391;airport;GJT;KGJT;Grand Junction;Grand Junction Regional Airport;2;10501;4858;39.12239838;-108.5270004
392;airport;GPT;KGPT;Gulfport;Gulfport Biloxi International Airport;2;9002;28;30.40730095;-89.07009888
393;airport;GRI;KGRI;Grand Island;Central Nebraska Regional Airport;2;7002;1847;40.96749878;-98.30960083
394;airport;GRK;KGRK;Fort Hood/Killeen;Robert Gray  Army Air Field Airport;1;10000;1015;31.06719971;-97.8289032
395;airport;GRR;KGRR;Grand Rapids;Gerald R. Ford International Airport;3;10000;794;42.88079834;-85.52279663
396;airport;GSO;KGSO;Greensboro;Piedmont Triad International Airport;3;10001;925;36.09780121;-79.93730164
397;airport;GSP;KGSP;Greenville;Greenville Spartanburg International Airport;1;11000;964;34.89569855;-82.21890259
398;airport;JAN;KJAN;Jackson;Jackson-Medgar Wiley Evers International Airport;2;8500;346;32.31119919;-90.07589722
399;airport;JLN;KJLN;Joplin;Joplin Regional Airport;3;6502;981;37.15179825;-94.49829865
400;airport;LAW;KLAW;Lawton;Lawton Fort Sill Regional Airport;1;8599;1110;34.56769943;-98.41660309
401;airport;LCH;KLCH;Lake Charles;Lake Charles Regional Airport;2;6500;15;30.12610054;-93.22329712
402;airport;LFT;KLFT;Lafayette;Lafayette Regional Airport;3;7651;42;30.20529938;-91.98760223
403;airport;LIR;MRLB;Liberia;Daniel Oduber Quiros International Airport;1;9022;270;10.59329987;-85.54440308
404;airport;LRD;KLRD;Laredo;Laredo International Airport;3;8236;508;27.54380035;-99.46160126
405;airport;MFE;KMFE;Mc Allen;Mc Allen Miller International Airport;2;7120;107;26.17580032;-98.23860168
406;airport;MGM;KMGM;Montgomery;Montgomery Regional (Dannelly Field) Airport;2;9010;221;32.30059814;-86.39399719
407;airport;MHK;KMHK;Manhattan;Manhattan Regional Airport;2;7000;1057;39.14099884;-96.67079926
408;airport;MLI;KMLI;Moline;Quad City International Airport;3;10002;590;41.44850159;-90.50749969
409;airport;MLM;MMMM;Morelia;General Francisco J. Mujica International Airport;1;11155;6033;19.84989929;-101.0250015
410;airport;MLU;KMLU;Monroe;Monroe Regional Airport;3;7507;79;32.51089859;-92.03769684
411;airport;MOB;KMOB;Mobile;Mobile Regional Airport;2;8521;219;30.69120026;-88.24279785
412;airport;MSN;KMSN;Madison;Dane County Regional Truax Field;3;9005;887;43.13990021;-89.33750153
413;airport;MZT;MMMZ;Mazatlán;General Rafael Buelna International Airport;1;8858;38;23.16139984;-106.2659988
414;airport;PBC;MMPB;Puebla;Hermanos Serdán International Airport;1;11811;7361;19.15810013;-98.37139893
415;airport;PLS;MBPV;Providenciales Island;Providenciales Airport;1;7598;15;21.77359962;-72.26589966
416;airport;PNS;KPNS;Pensacola;Pensacola Regional Airport;2;7004;121;30.47340012;-87.18659973
417;airport;PTY;MPTO;Panama City;Tocumen International Airport;2;10006;135;9.071359634;-79.38349915
418;airport;QRO;MMQT;Querétaro;Querétaro Intercontinental Airport;1;11483;6296;20.61730003;-100.185997
419;airport;ROW;KROW;Roswell;Roswell International Air Center Airport;3;13001;3671;33.30160141;-104.5309982
420;airport;SAL;MSLP;Santa Clara;El Salvador International Airport;2;10500;101;13.44089985;-89.05570221
421;airport;SAV;KSAV;Savannah;Savannah Hilton Head International Airport;2;9351;50;32.12760162;-81.20210266
422;airport;SJD;MMSD;San José del Cabo;Los Cabos International Airport;1;9843;374;23.15180016;-109.7210007
423;airport;SJT;KSJT;San Angelo;San Angelo Regional Mathis Field;3;7003;1919;31.35770035;-100.4960022
424;airport;SLP;MMSP;San Luis Potosí;Ponciano Arriaga International Airport;2;9867;6035;22.25429916;-100.9309998
425;airport;SPI;KSPI;Springfield;Abraham Lincoln Capital Airport;3;7999;598;39.84410095;-89.67790222
426;airport;SPS;KSPS;Wichita Falls;Sheppard Air Force Base-Wichita Falls Municipal Airport;4;13101;1019;33.98880005;-98.49189758
427;airport;TRC;MMTC;Torreón;Francisco Sarabia International Airport;2;9022;3688;25.56830025;-103.4110031
428;airport;TYR;KTYR;Tyler;Tyler Pounds Regional Airport;3;7200;544;32.35409927;-95.40239716
429;airport;TYS;KTYS;Knoxville;McGhee Tyson Airport;2;9005;981;35.81100082;-83.9940033
430;airport;VPS;KVPS;Valparaiso;Eglin Air Force Base;2;12005;87;30.48320007;-86.52539825
431;airport;XNA;KXNA;Fayetteville/Springdale/;Northwest Arkansas Regional Airport;1;8800;1287;36.2818985;-94.30680084
432;airport;ZCL;MMZC;Zacatecas;General Leobardo C. Ruiz International Airport;2;9843;7141;22.89710045;-102.6869965
433;airport;INN;LOWI;Innsbruck;Innsbruck Airport;1;6562;1906;47.2602005;11.34399986
434;airport;UVF;TLPL;Vieux Fort;Hewanorra International Airport;1;9003;14;13.7332;-60.952599
435;airport;CAK;KCAK;Akron;Akron Canton Regional Airport;3;7601;1228;40.91609955;-81.44219971
436;airport;BRL;KBRL;Burlington;Southeast Iowa Regional Airport;2;6702;698;40.78319931;-91.12550354
437;airport;MHT;KMHT;Manchester;Manchester Airport;2;9250;266;42.93259811;-71.43569946
438;airport;SYR;KSYR;Syracuse;Syracuse Hancock International Airport;3;9003;421;43.11119843;-76.10630035
439;airport;YQR;CYQR;Regina;Regina International Airport;2;7900;1894;50.43190002;-104.6660004
440;airport;FLO;KFLO;Florence;Florence Regional Airport;2;6499;146;34.1853981;-79.72389984
441;airport;AVL;KAVL;Asheville;Asheville Regional Airport;1;8001;2165;35.43619919;-82.54180145
442;airport;POM;AYPY;Port Moresby;Port Moresby Jacksons International Airport;2;9022;146;-9.443380356;147.2200012
443;airport;EGE;KEGE;Eagle;Eagle County Regional Airport;2;9000;6548;39.64260101;-106.9179993
444;airport;HDN;KHDN;Hayden;Yampa Valley Airport;1;10000;6606;40.48120117;-107.2180023
445;airport;SRQ;KSRQ;Sarasota/Bradenton;Sarasota Bradenton International Airport;2;9500;30;27.39539909;-82.55439758
446;airport;FOE;KFOE;Topeka;Topeka Regional Airport - Forbes Field;2;12802;1078;38.95090103;-95.66359711
447;airport;LAN;KLAN;Lansing;Capital City Airport;3;7251;861;42.77870178;-84.58740234
448;airport;ROA;KROA;Roanoke;Roanoke–Blacksburg Regional Airport;2;6800;1175;37.32550049;-79.97540283
449;airport;MQT;KSAW;Marquette;Sawyer International Airport;1;12370;1221;46.35359955;-87.395401
450;airport;GRB;KGRB;Green Bay;Austin Straubel International Airport;3;8201;695;44.48509979;-88.12960052
451;airport;BHX;EGBB;Birmingham;Birmingham International Airport;1;8527;327;52.45389938;-1.748029947
452;airport;INV;EGPE;Inverness;Inverness Airport;2;6191;31;57.54249954;-4.047500134
453;airport;SZG;LOWS;Salzburg;Salzburg Airport;1;9022;1411;47.79330063;13.00430012
454;airport;KGS;LGKO;Kos Island;Kos Airport;1;7841;412;36.79330063;27.0916996
455;airport;TRD;ENVA;Trondheim;Trondheim Airport, Værnes;3;9052;56;63.45780182;10.92399979
456;airport;HAN;VVNB;Hanoi;Noi Bai International Airport;2;12466;39;21.22120094;105.8069992
457;airport;KHH;RCKH;Kaohsiung City;Kaohsiung International Airport;1;10335;31;22.57710075;120.3499985
458;airport;NGO;RJGG;Tokoname;Chubu Centrair International Airport;1;11483;15;34.85839844;136.8049927
459;airport;BLL;EKBI;Billund;Billund Airport;1;10172;247;55.74029922;9.151780128
460;airport;BRN;LSZB;Bern;Bern Belp Airport;3;4954;1674;46.91410065;7.497149944
461;airport;IOM;EGNS;Castletown;Isle of Man Airport;3;5751;52;54.08330154;-4.623889923
462;airport;GRX;LEGR;Granada;Federico Garcia Lorca Airport;1;9514;1860;37.18870163;-3.777359962
463;airport;FLR;LIRQ;Firenze;Peretola Airport;1;5425;142;43.81000137;11.20510006
464;airport;DRS;EDDC;Dresden;Dresden Airport;1;8228;755;51.13280106;13.76720047
465;airport;DOL;LFRG;Deauville;Deauville-Saint-Gatien Airport;1;8366;479;49.36529922;0.154305995
466;airport;BVE;LFSL;Brive;Brive Souillac Airport;2;6890;1016;45.03972222;1.485555556
467;airport;BES;LFRB;Brest/Guipavas;Brest Bretagne Airport;2;10171;325;48.44789886;-4.418540001
468;airport;ANR;EBAW;Antwerp;Antwerp International Airport (Deurne);1;4954;39;51.18939972;4.460279942
469;airport;BRE;EDDW;Bremen;Bremen Airport;2;6693;14;53.04750061;8.786669731
470;airport;CFE;LFLC;Clermont-Ferrand/Auvergne;Clermont-Ferrand Auvergne Airport;2;9892;1090;45.7867012;3.169169903
471;airport;PRN;BKPR;Prishtina;Priština International Airport;1;8165;1789;42.57279968;21.03580093
472;airport;HME;DAUH;Hassi Messaoud;Oued Irara Airport;2;9843;463;31.67300034;6.140439987
473;airport;SXF;EDDB;Berlin;Berlin-Schönefeld International Airport;2;9843;157;52.38000107;13.52250004
474;airport;ERF;EDDE;Erfurt;Erfurt Airport;1;8530;1036;50.97980118;10.95810032
475;airport;BFS;EGAA;Belfast;Belfast International Airport;2;9121;268;54.65750122;-6.215829849
476;airport;NQY;EGHQ;Newquay;Newquay Cornwall Airport;1;9006;390;50.44060135;-4.995409966
477;airport;NOC;EIKN;Charleston;Ireland West Knock Airport;1;7546;665;53.91030121;-8.818490028
478;airport;AAL;EKYT;Aalborg;Aalborg Airport;2;8707;10;57.09275891;9.849243164
479;airport;AES;ENAL;Ålesund;Ålesund Airport;1;7592;69;62.5625;6.119699955
480;airport;TOS;ENTC;Tromsø;Tromsø Airport;1;7848;31;69.6832962;18.91889954
481;airport;TRF;ENTO;Torp;Sandefjord Airport, Torp;1;9675;286;59.18669891;10.25860024
482;airport;KRK;EPKK;Kraków;John Paul II International Airport Kraków-Balice Airport;1;8366;791;50.07770157;19.78479958
483;airport;KUN;EYKA;Kaunas;Kaunas International Airport;1;10335;256;54.96390152;24.08480072
484;airport;FUE;GCFV;Fuerteventura Island;Fuerteventura Airport;1;11175;85;28.45269966;-13.86380005
485;airport;ACE;GCRR;Lanzarote Island;Lanzarote Airport;1;7874;46;28.94549942;-13.60519981
486;airport;TFS;GCTS;Tenerife Island;Tenerife South Airport;1;10499;209;28.04450035;-16.57250023
487;airport;AGA;GMAD;Agadir;Al Massira Airport;1;10499;250;30.32500076;-9.413069725
488;airport;RAK;GMMX;Marrakech;Menara Airport;1;10170;1545;31.60689926;-8.036299706
489;airport;SID;GVAC;Espargos;Amílcar Cabral International Airport;2;10735;177;16.74139977;-22.94939995
490;airport;BVC;GVBA;Rabil;Rabil Airport;1;4007;69;16.1364994;-22.88890076
491;airport;HRG;HEGN;Hurghada;Hurghada International Airport;1;13124;52;27.17830086;33.79940033
492;airport;SSH;HESH;Sharm el-Sheikh;Sharm El Sheikh International Airport;2;10108;143;27.97730064;34.39500046
493;airport;TIA;LATI;Tirana;Tirana International Airport Mother Teresa;1;8971;126;41.41469955;19.72060013
494;airport;PFO;LCPH;Paphos;Paphos International Airport;1;8858;41;34.7179985;32.4856987
495;airport;LEI;LEAM;Almería;Almería International Airport;1;10499;70;36.84389877;-2.370100021
496;airport;MJV;LELC;San Javier;San Javier Airport;3;7546;11;37.77500153;-0.812389016
497;airport;SCQ;LEST;Santiago de Compostela;Santiago de Compostela Airport;1;10499;1213;42.89630127;-8.415140152
498;airport;VLC;LEVC;Valencia;Valencia Airport;2;8858;240;39.48929977;-0.481624991
499;airport;BOD;LFBD;Bordeaux/Mérignac;Bordeaux-Mérignac Airport;2;10171;162;44.82830048;-0.715556026
500;airport;BIA;LFKB;Bastia/Poretta;Bastia-Poretta Airport;1;8266;26;42.55270004;9.483730316
501;airport;AJA;LFKJ;Ajaccio/Napoléon Bonaparte;Ajaccio-Napoléon Bonaparte Airport;1;7897;18;41.92359924;8.802920341
502;airport;MPL;LFMT;Montpellier/Méditerranée;Montpellier-Méditerranée Airport;2;8530;17;43.57619858;3.963010073
503;airport;SXB;LFST;Strasbourg;Strasbourg Airport;1;7874;505;48.53829956;7.628230095
504;airport;HER;LGIR;Heraklion;Heraklion International Nikos Kazantzakis Airport;3;8800;115;35.33969879;25.18029976
505;airport;EFL;LGKF;Kefallinia Island;Kefallinia Airport;1;7992;59;38.12009811;20.50049973
506;airport;KLX;LGKL;Kalamata;Kalamata Airport;1;9260;26;37.06829834;22.02549934
507;airport;CFU;LGKR;Kerkyra Island;Ioannis Kapodistrias International Airport;1;7792;6;39.60189819;19.9116993
508;airport;PVK;LGPZ;Preveza/Lefkada;Aktion National Airport;1;9419;11;38.92549896;20.76530075
509;airport;CHQ;LGSA;Souda;Chania International Airport;1;10982;490;35.53170013;24.14970016
510;airport;SKG;LGTS;Thessaloniki;Thessaloniki Macedonia International Airport;2;8005;22;40.5196991;22.97089958
511;airport;BRI;LIBD;Bari;Bari Karol Wojtyła Airport;2;8005;177;41.13890076;16.76059914
512;airport;CTA;LICC;Catania;Catania-Fontanarossa Airport;1;7989;39;37.46680069;15.06639957
513;airport;PMO;LICJ;Palermo;Falcone–Borsellino Airport;2;10912;65;38.17599869;13.0909996
514;airport;OLB;LIEO;Olbia;Olbia Costa Smeralda Airport;1;8025;37;40.89870071;9.517629623
515;airport;PDL;LPPD;Ponta Delgada;João Paulo II Airport;1;8192;259;37.74119949;-25.69790077
516;airport;ADB;LTBJ;İzmir;Adnan Menderes International Airport;2;10630;412;38.29240036;27.15699959
517;airport;DLM;LTBS;Dalaman;Dalaman International Airport;1;9842;20;36.71310043;28.79249954
518;airport;BJV;LTFE;Bodrum;Milas Bodrum International Airport;1;9842;21;37.25059891;27.66430092
519;airport;SAW;LTFJ;Istanbul;Sabiha Gökçen International Airport;1;9843;312;40.89860153;29.30920029
520;airport;TIV;LYTV;Tivat;Tivat Airport;1;8208;20;42.40470123;18.72330093
521;airport;NBE;DTNH;Enfidha;Enfidha - Hammamet International Airport;1;10827;21;36.075833;10.438611
522;airport;MSQ;UMMS;Minsk;Minsk International Airport;1;11946;670;53.88249969;28.03070068
523;airport;MLE;VRMM;Malé;Malé International Airport;1;10499;6;4.191830158;73.52909851
524;airport;DTM;EDLW;Dortmund;Dortmund Airport;1;6562;425;51.5182991;7.612239838
525;airport;AGS;KAGS;Augusta;Augusta Regional At Bush Field;2;8001;144;33.36989975;-81.96450043
526;airport;BGR;KBGR;Bangor;Bangor International Airport;1;11440;192;44.80739975;-68.82810211
527;airport;BTV;KBTV;Burlington;Burlington International Airport;2;8320;335;44.47190094;-73.15329742
528;airport;FAY;KFAY;Fayetteville;Fayetteville Regional Grannis Field;2;7712;189;34.99119949;-78.88030243
529;airport;HHH;KHXD;Hilton Head Island;Hilton Head Airport;1;4300;19;32.22439957;-80.69750214
530;airport;ILM;KILM;Wilmington;Wilmington International Airport;2;8016;32;34.27059937;-77.90260315
531;airport;OAJ;KOAJ;Jacksonville;Albert J Ellis Airport;1;7100;94;34.82920074;-77.61209869
532;airport;NUE;EDDN;Nuremberg;Nuremberg Airport;1;8858;1046;49.49869919;11.06690025
533;airport;LEJ;EDDP;Leipzig;Leipzig Halle Airport;2;11811;465;51.43239975;12.24160004
534;airport;CWL;EGFF;Cardiff;Cardiff International Airport;1;7848;220;51.39670181;-3.343329906
535;airport;SEN;EGMC;Southend;London Southend Airport;1;5023;49;51.57139969;0.695555985
536;airport;HUY;EGNJ;Grimsby;Humberside Airport;2;7205;121;53.57440186;-0.350832999
537;airport;MME;EGNV;Durham;Durham Tees Valley Airport;1;7516;120;54.50920105;-1.429409981
538;airport;NWI;EGSH;Norwich;Norwich International Airport;2;6040;117;52.67580032;1.282780051
539;airport;EXT;EGTE;Exeter;Exeter International Airport;2;6834;102;50.7344017;-3.413889885
540;airport;KRS;ENCN;Kjevik;Kristiansand Airport;1;6660;57;58.20420074;8.085370064
541;airport;GDN;EPGD;Gdańsk;Gdańsk Lech Wałęsa Airport;1;9186;489;54.37760162;18.46619987
542;airport;VXO;ESMX;Växjö;Växjö Kronoberg Airport;1;6900;610;56.92910004;14.72799969
543;airport;LPI;ESSL;Linköping;Linköping City Airport;1;6989;172;58.40620041;15.68050003
544;airport;SPC;GCLA;Sta Cruz de la Palma, La Palma Island;La Palma Airport;1;7218;107;28.62649918;-17.75559998
545;airport;NDR;GMMW;Nador;Nador International Airport;1;9842;574;34.98880005;-3.028209925
546;airport;VXE;GVSV;São Pedro;São Pedro Airport;1;6561;66;16.83320045;-25.05529976
547;airport;KGL;HRYR;Kigali;Kigali International Airport;1;11483;4859;-1.968629956;30.13949966
548;airport;JRO;HTKJ;Arusha;Kilimanjaro International Airport;1;11834;2932;-3.429409981;37.07450104
549;airport;SFB;KSFB;Orlando;Orlando Sanford International Airport;4;9600;55;28.77759933;-81.23750305
550;airport;GRO;LEGE;Girona;Girona Airport;1;7874;468;41.90100098;2.760550022
551;airport;JKH;LGHI;Chios Island;Chios Island National Airport;1;4957;15;38.34320068;26.1406002
552;airport;KIT;LGKC;Kithira Island;Kithira Airport;1;4794;1045;36.27429962;23.0170002
553;airport;SMI;LGSM;Samos Island;Samos Airport;1;6706;19;37.68999863;26.9116993
554;airport;SUF;LICA;Lamezia Terme;Lamezia Terme Airport;1;7920;39;38.90539932;16.24230003
555;airport;LJU;LJLJ;Ljubljana;Ljubljana Jože Pu?nik Airport;1;10827;1273;46.22370148;14.45759964
556;airport;KYA;LTAN;Konya;Konya Airport;2;10984;3381;37.97900009;32.56190109
557;airport;ASR;LTAU;Kayseri;Kayseri Erkilet Airport;1;9841;3463;38.770401;35.49539948
558;airport;POP;MDPP;Puerto Plata;Gregorio Luperon International Airport;1;10108;15;19.75790024;-70.56999969
559;airport;HOG;MUHG;Holguin;Frank Pais International Airport;1;10624;361;20.78560066;-76.31510162
560;airport;VRA;MUVR;Varadero;Juan Gualberto Gomez International Airport;1;11490;210;23.03440094;-81.43530273
561;airport;DMM;OEDF;Ad Dammam;King Fahd International Airport;2;13124;72;26.47120094;49.79790115
562;airport;EBL;ORER;Arbil;Erbil International Airport;4;13890;1341;36.23759842;43.96319962
563;airport;UIO;SEQM;Quito;Mariscal Sucre International Airport;1;13445;9200;-0.129166667;-78.3575
564;airport;PBM;SMJP;Zandery;Johan Adolf Pengel International Airport;1;11417;59;5.452829838;-55.18780136
565;airport;GUW;UATG;Atyrau;Atyrau Airport;1;9842;-72;47.12189865;51.82139969
566;airport;TBS;UGTB;Tbilisi;Tbilisi International Airport;2;9843;1624;41.6692009;44.95470047
567;airport;XMN;ZSAM;Xiamen;Xiamen Gaoqi International Airport;1;11155;59;24.54400063;118.1279984
568;airport;HGH;ZSHC;Hangzhou;Hangzhou Xiaoshan International Airport;1;11811;23;30.22949982;120.4339981
569;airport;BQN;TJBQ;Aguadilla;Rafael Hernandez Airport;1;11702;237;18.49489975;-67.12940216
570;airport;APF;KAPF;Naples;Naples Municipal Airport;3;5290;8;26.15259933;-81.77529907
571;airport;GNV;KGNV;Gainesville;Gainesville Regional Airport;2;7504;152;29.69009972;-82.27179718
572;airport;LRM;MDLR;La Romana;Casa De Campo International Airport;1;9676;240;18.45070076;-68.91179657
573;airport;SDQ;MDSD;Santo Domingo;Las Américas International Airport;1;11000;59;18.42970085;-69.66889954
574;airport;STI;MDST;Santiago;Cibao International Airport;1;8595;565;19.40609932;-70.60469818
575;airport;SAP;MHLM;La Mesa;Ramón Villeda Morales International Airport;1;9203;91;15.45259953;-87.92359924
576;airport;MID;MMMD;Mérida;Licenciado Manuel Crescencio Rejon Int Airport;2;10499;38;20.93700027;-89.65769959
577;airport;MGA;MNMG;Managua;Augusto C. Sandino (Managua) International Airport;1;8012;194;12.14150047;-86.16819763
578;airport;PAP;MTPP;Port-au-Prince;Toussaint Louverture International Airport;1;9974;122;18.57999992;-72.29250336
579;airport;CYB;MWCB;Cayman Brac;Gerrard Smith International Airport;1;6000;8;19.68700027;-79.88279724
580;airport;GCM;MWCR;Georgetown;Owen Roberts International Airport;1;7021;8;19.2928009;-81.35769653
581;airport;MHH;MYAM;Marsh Harbour;Marsh Harbour International Airport;1;4998;6;26.51140022;-77.08350372
582;airport;ELH;MYEH;North Eleuthera;North Eleuthera Airport;1;6020;13;25.47489929;-76.6835022
583;airport;BEL;SBBE;Belém;Val de Cans/Júlio Cezar Ribeiro International Airport;2;9186;54;-1.37925005;-48.47629929
584;airport;BSB;SBBR;Brasília;Presidente Juscelino Kubistschek International Airport;2;10827;3497;-15.86916733;-47.92083359
585;airport;CNF;SBCF;Belo Horizonte;Tancredo Neves International Airport;1;9843;2715;-19.62444305;-43.9719429
586;airport;CWB;SBCT;Curitiba;Afonso Pena Airport;2;7267;2988;-25.5284996;-49.17580032
587;airport;MAO;SBEG;Manaus;Eduardo Gomes International Airport;1;8858;264;-3.038609982;-60.04970169
588;airport;REC;SBRF;Recife;Guararapes - Gilberto Freyre International Airport;1;9865;33;-8.126489639;-34.92359924
589;airport;SSA;SBSV;Salvador;Deputado Luiz Eduardo Magalhães International Airport;2;9859;64;-12.9086113;-38.32249832
590;airport;ASU;SGAS;Asunción;Silvio Pettirossi International Airport;1;11001;292;-25.23999977;-57.52000046
591;airport;BAQ;SKBQ;Barranquilla;Ernesto Cortissoz International Airport;1;9842;98;10.8896;-74.7808
592;airport;CTG;SKCG;Cartagena;Rafael Nuñez International Airport;1;8530;4;10.4424;-75.513
593;airport;CLO;SKCL;Cali;Alfonso Bonilla Aragon International Airport;1;9842;3162;3.54322;-76.3816
594;airport;MDE;SKRG;Rionegro;Jose Maria Córdova International Airport;1;11483;6955;6.16454;-75.4231
595;airport;LPB;SLLP;La Paz / El Alto;El Alto International Airport;2;13123;13355;-16.51329994;-68.19229889
596;airport;BLA;SVBC;Barcelona;General Jose Antonio Anzoategui International Airport;2;9840;26;10.10709953;-64.68920135
597;airport;MAR;SVMC;Maracaibo;La Chinita International Airport;2;9843;239;10.55820847;-71.7278595
598;airport;GEO;SYCJ;Georgetown;Cheddi Jagan International Airport;2;7448;95;6.498549938;-58.2541008
599;airport;FDF;TFFF;Fort-de-France;Martinique Aimé Césaire International Airport;1;10826;16;14.5909996;-61.00320053
600;airport;PTP;TFFR;Pointe-à-Pitre Le Raizet;Pointe-à-Pitre Le Raizet;1;11499;36;16.26530075;-61.53179932
601;airport;GND;TGPY;Saint George's;Point Salines International Airport;1;9003;41;12.00419998;-61.78620148
602;airport;STX;TISX;Christiansted;Henry E Rohlsen Airport;1;10004;74;17.70190048;-64.79859924
603;airport;SKB;TKPK;Basseterre;Robert L. Bradshaw International Airport;1;7602;170;17.31119919;-62.71870041
604;airport;DKR;GOOY;Dakar;Léopold Sédar Senghor International Airport;2;11450;85;14.73970032;-17.49020004
605;airport;BUR;KBUR;Burbank;Bob Hope Airport;2;6886;778;34.20069885;-118.3590012
606;airport;AZS;MDCY;Samana;Samaná El Catey International Airport;1;9843;30;19.2670002;-69.74199677
607;airport;PSE;TJPS;Ponce;Mercedita Airport;1;6904;29;18.00830078;-66.56300354
608;airport;ACY;KACY;Atlantic City;Atlantic City International Airport;2;10000;75;39.45759964;-74.57720184
609;airport;ABE;KABE;Allentown;Lehigh Valley International Airport;2;7600;393;40.65209961;-75.44080353
610;airport;ABY;KABY;Albany;Southwest Georgia Regional Airport;2;6601;197;31.53549957;-84.19450378
611;airport;ATW;KATW;Appleton;Appleton International Airport;2;8002;918;44.2580986;-88.51909637
612;airport;AVP;KAVP;Wilkes-Barre/Scranton;Wilkes Barre Scranton International Airport;2;7501;962;41.33850098;-75.7233963
613;airport;AZO;KAZO;Kalamazoo;Kalamazoo Battle Creek International Airport;3;6500;874;42.23490143;-85.55210114
614;airport;BQK;KBQK;Brunswick;Brunswick Golden Isles Airport;1;8001;26;31.25880051;-81.46649933
615;airport;CHO;KCHO;Charlottesville;Charlottesville Albemarle Airport;1;6001;639;38.1385994;-78.45290375
616;airport;CSG;KCSG;Columbus;Columbus Metropolitan Airport;2;6997;397;32.5163002;-84.93890381
617;airport;DAB;KDAB;Daytona Beach;Daytona Beach International Airport;3;10500;34;29.17989922;-81.05809784
618;airport;DHN;KDHN;Dothan;Dothan Regional Airport;2;8498;401;31.32130051;-85.44960022
619;airport;EWN;KEWN;New Bern;Coastal Carolina Regional Airport;2;6004;18;35.07300186;-77.04290009
620;airport;FNT;KFNT;Flint;Bishop International Airport;2;7849;782;42.9654007;-83.74359894
621;airport;GTR;KGTR;Columbus/W Point/Starkville;Golden Triangle Regional Airport;1;8002;264;33.45029831;-88.59140015
622;airport;LWB;KLWB;Lewisburg;Greenbrier Valley Airport;1;7004;2302;37.85829926;-80.39949799
623;airport;MBS;KMBS;Saginaw;MBS International Airport;2;8002;668;43.53290176;-84.07959747
624;airport;MCN;KMCN;Macon;Middle Georgia Regional Airport;2;6501;354;32.69279861;-83.64920044
625;airport;MEI;KMEI;Meridian;Key Field;2;10003;297;32.33259964;-88.75189972
626;airport;MLB;KMLB;Melbourne;Melbourne International Airport;3;10181;33;28.10280037;-80.64530182
627;airport;MSL;KMSL;Muscle Shoals;Northwest Alabama Regional Airport;2;6693;551;34.74530029;-87.61019897
628;airport;PHF;KPHF;Newport News;Newport News Williamsburg International Airport;2;8003;42;37.13190079;-76.49299622
629;airport;PIB;KPIB;Hattiesburg/Laurel;Hattiesburg Laurel Regional Airport;1;6501;298;31.46710014;-89.33709717
630;airport;SBN;KSBN;South Bend;South Bend Regional Airport;3;8412;799;41.70869827;-86.31729889
631;airport;TRI;KTRI;Bristol/Johnson/Kingsport;Tri Cities Regional Tn Va Airport;2;8030;1519;36.47520065;-82.40740204
632;airport;TTN;KTTN;Trenton;Trenton Mercer Airport;2;6006;213;40.27669907;-74.81349945
633;airport;TUP;KTUP;Tupelo;Tupelo Regional Airport;1;6500;346;34.26810074;-88.76989746
634;airport;VLD;KVLD;Valdosta;Valdosta Regional Airport;3;6302;203;30.78249931;-83.27670288
635;airport;KIR;EIKY;Killarney;Kerry Airport;2;6562;112;52.18090057;-9.523779869
636;airport;KTW;EPKT;Katowice;Katowice International Airport;1;9183;995;50.47430038;19.07999992
637;airport;LUZ;EPLB;Lublin;Lublin Airport;1;8268;633;51.240278;22.713611
638;airport;PPT;NTAA;Papeete;Tahiti Faa'a International Airport;1;11360;5;-17.55369949;-149.6069946
639;airport;LNY;PHNY;Lanai City;Lanai Airport;1;5001;1308;20.78560066;-156.951004
640;airport;KOA;PHKO;Kailua/Kona;Kona International At Keahole Airport;1;11000;47;19.73880005;-156.0460052
641;airport;APW;NSFA;Apia;Faleolo International Airport;1;9843;58;-13.82999992;-172.0079956
642;airport;PPG;NSTU;Pago Pago;Pago Pago International Airport;2;10000;32;-14.33100033;-170.7100067
643;airport;MAJ;PKMJ;Majuro Atoll;Marshall Islands International Airport;1;7897;6;7.064760208;171.2720032
644;airport;CXI;PLCH;Banana;Kiritimati (Christmas Island) - Cassidy International Airport;1;6900;5;1.98616004;-157.3500061
645;airport;TRW;NGTA;Tarawa;Bonriki International Airport;1;6598;9;1.381639957;173.1470032
646;airport;INU;ANYN;Yaren District;Nauru International Airport;1;7054;22;-0.547458;166.919006
647;airport;JHM;PHJH;Lahaina;Kapalua Airport;1;3000;256;20.96290016;-156.6730042
648;airport;MKK;PHMK;Kaunakakai;Molokai Airport;2;4494;454;21.1529007;-157.095993
649;airport;YXU;CYXU;London;London Airport;2;8800;912;43.03559875;-81.15390015
650;airport;ALO;KALO;Waterloo;Waterloo Regional Airport;3;8400;873;42.55709839;-92.40029907
651;airport;SUX;KSUX;Sioux City;Sioux Gateway Col. Bud Day Field;2;9002;1098;42.40259933;-96.38439941
652;airport;YKF;CYKF;Kitchener;Waterloo Airport;2;7002;1055;43.46080017;-80.37860107
653;airport;VNO;EYVI;Vilnius;Vilnius International Airport;1;8251;646;54.63410187;25.28580093
654;airport;AGR;VIAG;Agra;Agra Airport;2;9000;551;27.15579987;77.96089935
655;airport;HJR;VAKJ;Khajuraho;Khajuraho Airport;1;7460;728;24.81719971;79.91860199
656;airport;VNS;VIBN;Varanasi;Lal Bahadur Shastri Airport;1;7238;266;25.45240021;82.85929871
657;airport;VVO;UHWW;Vladivostok;Vladivostok International Airport;4;11483;46;43.39899826;132.147995
658;airport;BOJ;LBBG;Burgas;Burgas Airport;1;10499;135;42.56959915;27.51519966
659;airport;IXE;VOML;Mangalore;Mangalore International Airport;2;5300;337;12.9612999;74.89009857
660;airport;REU;LERS;Reus;Reus Air Base;2;8054;233;41.1473999;1.167170048
661;airport;BZR;LFMU;Béziers/Vias;Béziers-Vias Airport;1;5971;56;43.32350159;3.353899956
662;airport;AMD;VAAH;Ahmedabad;Sardar Vallabhbhai Patel International Airport;1;11447;189;23.07719994;72.63469696
663;airport;JDH;VIJO;Jodhpur;Jodhpur Airport;1;9005;717;26.25110054;73.04889679
664;airport;PNQ;VAPO;Pune;Pune Airport;2;8329;1942;18.58209991;73.91970062
665;airport;SZX;ZGSZ;Shenzhen;Shenzhen Bao'an International Airport;1;11155;13;22.63929939;113.810997
666;airport;HIJ;RJOA;Hiroshima;Hiroshima Airport;1;9842;1088;34.43610001;132.9190063
667;airport;DIL;WPDL;Dili;Presidente Nicolau Lobato International Airport;1;6065;154;-8.54640007;125.526001
668;airport;TSN;ZBTJ;Tianjin;Tianjin Binhai International Airport;1;10499;10;39.12440109;117.3460007
669;airport;CSX;ZGHA;Changsha;Changsha Huanghua International Airport;1;8530;217;28.18919945;113.2200012
670;airport;PEN;WMKP;Penang;Penang International Airport;1;10997;11;5.297140121;100.2770004
671;airport;WUH;ZHHH;Wuhan;Wuhan Tianhe International Airport;1;11155;113;30.78380013;114.2080002
672;airport;HAK;ZJHK;Haikou;Haikou Meilan International Airport;1;11811;75;19.93490028;110.4589996
673;airport;KMG;ZPPP;Kunming;Kunming Wujiaba International Airport;1;11155;6217;24.99239922;102.7440033
674;airport;FOC;ZSFZ;Fuzhou;Fuzhou Changle International Airport;1;11841;46;25.93510056;119.663002
675;airport;NGB;ZSNB;Ningbo;Ningbo Lishe International Airport;1;10499;13;29.82670021;121.461998
676;airport;TAO;ZSQD;Qingdao;Liuting Airport;1;11155;33;36.26610184;120.3740005
677;airport;CKG;ZUCK;Chongqing;Chongqing Jiangbei International Airport;1;10499;1365;29.71920013;106.6419983
678;airport;KWE;ZUGY;Guiyang;Longdongbao Airport;1;10500;3736;26.53849983;106.8010025
679;airport;NNG;ZGNN;Nanning;Nanning Wuxu Airport;1;8858;421;22.60829926;108.1719971
680;airport;KOJ;RJFK;Kagoshima;Kagoshima Airport;1;9840;906;31.80340004;130.7189941
681;airport;OIT;RJFO;Oita;Oita Airport;1;9840;19;33.47940063;131.7369995
682;airport;KMQ;RJNK;Kanazawa;Komatsu Airport;2;8876;36;36.39459991;136.4069977
683;airport;YGJ;RJOH;Yonago;Miho Yonago Airport;1;6560;20;35.49219894;133.2359924
684;airport;MYJ;RJOM;Matsuyama;Matsuyama Airport;1;8200;25;33.82720184;132.6999969
685;airport;TAK;RJOT;Takamatsu;Takamatsu Airport;1;8200;607;34.21419907;134.0160065
686;airport;KIJ;RJSN;Niigata;Niigata Airport;2;8200;29;37.95589828;139.1210022
687;airport;SDJ;RJSS;Sendai;Sendai Airport;2;9842;15;38.13970184;140.9170074
688;airport;CJU;RKPC;Jeju City;Jeju International Airport;2;9843;118;33.51129913;126.4929962
689;airport;PUS;RKPK;Busan;Gimhae International Airport;2;10499;6;35.17950058;128.9380035
690;airport;OKA;ROAH;Naha;Naha Airport;1;9840;12;26.19580078;127.6460037
691;airport;SPN;PGSN;Saipan Island;Saipan International Airport;1;8700;215;15.11900043;145.7290039
692;airport;ROR;PTRO;Babelthuap Island;Babelthuap Airport;1;7200;176;7.367650032;134.5440063
693;airport;RGN;VYYY;Yangon;Yangon International Airport;1;11200;109;16.90730095;96.1332016
694;airport;DMK;VTBD;Bangkok;Don Mueang International Airport;2;12139;9;13.91259956;100.6070023
695;airport;CNX;VTCC;Chiang Mai;Chiang Mai International Airport;1;10171;1036;18.76679993;98.96260071
696;airport;KBV;VTSG;Krabi;Krabi Airport;1;9842;82;8.09912014;98.98619843
697;airport;USM;VTSM;Na Thon (Ko Samui Island);Samui Airport;1;6759;64;9.547789574;100.0619965
698;airport;HDY;VTSS;Hat Yai;Hat Yai International Airport;1;10007;90;6.933209896;100.3929977
699;airport;DAD;VVDN;Da Nang;Da Nang International Airport;2;10000;33;16.04389954;108.1989975
700;airport;BWN;WBSB;Bandar Seri Begawan;Brunei International Airport;1;12000;73;4.944200039;114.9280014
701;airport;CEB;RPVM;Lapu-Lapu City;Mactan Cebu International Airport;1;10827;31;10.30749989;123.9789963
702;airport;ULN;ZMUB;Ulaanbaatar;Chinggis Khaan International Airport;2;10170;4364;47.8431015;106.7669983
703;airport;MFM;VMMC;Taipa;Macau International Airport;1;10544;20;22.14959908;113.5920029
704;airport;BPN;WALL;Kotamadya Balikpapan;Sultan Aji Muhamad Sulaiman Airport;1;8185;12;-1.268270016;116.8939972
705;airport;BKI;WBKK;Kota Kinabalu;Kota Kinabalu International Airport;1;9800;10;5.937210083;116.0510025
706;airport;CRK;RPLC;Angeles City;Clark International Airport;2;10499;484;15.18599987;120.5599976
707;airport;KBR;WMKC;Kota Baharu;Sultan Ismail Petra Airport;1;6982;16;6.16685009;102.2929993
708;airport;ILO;RPVI;Iloilo City;Iloilo International Airport;1;6890;27;10.833017;122.493358
709;airport;REP;VDSR;Siem Reap;Siem Reap International Airport;1;8366;60;13.41069984;103.8130035
710;airport;KHV;UHHH;Khabarovsk;Khabarovsk-Novy Airport;2;13124;244;48.52799988;135.1880035
711;airport;UUS;UHSS;Yuzhno-Sakhalinsk;Yuzhno-Sakhalinsk Airport;1;11155;59;46.88869858;142.7180023
712;airport;CGQ;ZYCC;Changchun;Longjia Airport;1;10500;706;43.99620056;125.6849976
713;airport;DLC;ZYTL;Dalian;Zhoushuizi Airport;1;10827;107;38.96569824;121.5390015
714;airport;SHE;ZYTX;Shenyang;Taoxian Airport;1;10499;198;41.63980103;123.4830017
715;airport;KCH;WBGG;Kuching;Kuching International Airport;1;8051;89;1.484699965;110.3470001
716;airport;MYY;WBGR;Miri;Miri Airport;1;9006;59;4.32201004;113.9869995
717;airport;KUA;WMKD;Kuantan;Kuantan Airport;1;9200;58;3.77538991;103.2089996
718;airport;IPH;WMKI;Ipoh;Sultan Azlan Shah Airport;1;5900;130;4.567969799;101.0920029
719;airport;LGK;WMKL;Langkawi;Langkawi International Airport;1;12500;29;6.329730034;99.72869873
720;airport;TGG;WMKN;Kuala Terengganu;Sultan Mahmud Airport;1;6600;21;5.382639885;103.1029968
721;airport;SZB;WMSA;Subang;Sultan Abdul Aziz Shah International Airport;1;12401;90;3.130579948;101.5490036
722;airport;SHJ;OMSJ;Sharjah;Sharjah International Airport;1;13320;111;25.32859993;55.51720047
723;airport;ADE;OYAA;Aden;Aden International Airport;1;10171;7;12.8295002;45.02880096
724;airport;CJB;VOCB;Coimbatore;Coimbatore International Airport;1;8480;1324;11.02999973;77.04340363
725;airport;COK;VOCI;Cochin;Cochin International Airport;1;11155;30;10.15200043;76.40190125
726;airport;VAR;LBWN;Varna;Varna Airport;1;8202;230;43.23210144;27.82509995
727;airport;TRV;VOTV;Trivandrum;Trivandrum International Airport;1;11148;15;8.48211956;76.92009735
728;airport;DVO;RPMD;Davao City;Francisco Bangoy International Airport;1;9842;96;7.125520229;125.6460037
729;airport;VTE;VLVT;Vientiane;Wattay International Airport;1;9843;564;17.98830032;102.5630035
730;airport;SUB;WARR;Surabaya;Juanda International Airport;1;9843;9;-7.379829884;112.7870026
731;airport;BDO;WICC;Bandung-Java Island;Husein Sastranegara International Airport;1;7361;2436;-6.900629997;107.5759964
732;airport;LOP;WADL;Mataram;Bandara International Lombok Airport;1;9000;319;-8.757322;116.276675
733;airport;KLO;RPVK;Kalibo;Kalibo International Airport;1;7175;14;11.67940044;122.3759995
734;airport;PKU;WIBB;Pekanbaru-Sumatra Island;Sultan Syarif Kasim Ii (Simpang Tiga) Airport;1;7360;102;0.460786015;101.4449997
735;airport;PLM;WIPP;Palembang-Sumatra Island;Sultan Mahmud Badaruddin Ii Airport;1;8202;49;-2.898250103;104.6999969
736;airport;SOC;WARQ;Sukarata(Solo)-Java Island;Adi Sumarmo Wiryokusumo Airport;1;8530;421;-7.516089916;110.7570038
737;airport;SRG;WARS;Semarang-Java Island;Achmad Yani Airport;1;6070;10;-6.97273016;110.375
738;airport;UPG;WAAA;Ujung Pandang-Celebes Island;Hasanuddin International Airport;2;8202;47;-5.061629772;119.5540009
739;airport;TRZ;VOTR;Tiruchirappally;Tiruchirapally Civil Airport Airport;2;6115;288;10.76539993;78.70970154
740;airport;SAH;OYSN;Sana'a;Sana'a International Airport;1;10669;7216;15.47630024;44.21969986
741;airport;JOG;WARJ;Yogyakarta-Java Island;Adi Sutjipto International Airport;2;7215;350;-7.788179874;110.4319992
742;airport;DIU;VA1P;Diu;Diu Airport;2;5980;31;20.71310043;70.9210968
743;airport;PBD;VAPR;Porbandar;Porbandar Airport;1;4500;23;21.64870071;69.65720367
744;airport;NOU;NWWW;Nouméa;La Tontouta International Airport;1;10663;52;-22.01460075;166.2129974
745;airport;TSA;RCSS;Taipei City;Taipei Songshan Airport;1;8547;18;25.06940079;121.552002
746;airport;SHM;RJBD;Shirahama;Nanki Shirahama Airport;2;6560;298;33.66220093;135.3639984
747;airport;UKB;RJBE;Kobe;Kobe Airport;1;8202;22;34.63280106;135.223999
748;airport;OBO;RJCB;Obihiro;Tokachi-Obihiro Airport;1;8202;505;42.73329926;143.2169952
749;airport;HKD;RJCH;Hakodate;Hakodate Airport;1;9842;151;41.77000046;140.8220062
750;airport;KUH;RJCK;Kushiro;Kushiro Airport;1;8202;327;43.04100037;144.1929932
751;airport;MMB;RJCM;Ōzora;Memanbetsu Airport;1;8202;135;43.88059998;144.1640015
752;airport;SHB;RJCN;Nakashibetsu;Nakashibetsu Airport;1;6560;234;43.57749939;144.9600067
753;airport;WKJ;RJCW;Wakkanai;Wakkanai Airport;1;6560;30;45.40420151;141.8009949
754;airport;UBJ;RJDC;Ube;Yamaguchi Ube Airport;1;8200;23;33.93000031;131.279007
755;airport;MBE;RJEB;Monbetsu;Monbetsu Airport;1;6562;80;44.30390167;143.404007
756;airport;AKJ;RJEC;Asahikawa / Hokkaid?;Asahikawa Airport;1;8200;721;43.67079926;142.4470062
757;airport;KMI;RJFM;Miyazaki;Miyazaki Airport;1;8200;20;31.87719917;131.4490051
758;airport;KKJ;RJFR;Kitakyūshū;Kitakyūshū Airport;1;8202;21;33.84590149;131.0350037
759;airport;HSG;RJFS;Saga;Saga Airport;1;6562;6;33.14970016;130.302002
760;airport;KMJ;RJFT;Kumamoto;Kumamoto Airport;1;9840;642;32.83729935;130.8549957
761;airport;NGS;RJFU;Nagasaki;Nagasaki Airport;2;9840;15;32.91690063;129.9140015
762;airport;ASJ;RJKA;Amami;Amami Airport;1;6560;27;28.43059921;129.7129974
763;airport;TOY;RJNT;Toyama;Toyama Airport;1;6562;95;36.64830017;137.1880035
764;airport;NTQ;RJNW;Wajima;Noto Airport;1;6562;718;37.29309845;136.9620056
765;airport;OKJ;RJOB;Okayama City;Okayama Airport;1;9843;806;34.75690079;133.8549957
766;airport;IZO;RJOC;Izumo;Izumo Airport;1;6562;15;35.41360092;132.8899994
767;airport;KCZ;RJOK;Nankoku;K?chi Ry?ma Airport;1;8203;42;33.54610062;133.6690063
768;airport;TTJ;RJOR;Tottori;Tottori Airport;1;6562;65;35.53010178;134.1670074
769;airport;TKS;RJOS;Tokushima;Tokushima Airport;1;6560;26;34.13280106;134.6069946
770;airport;IWJ;RJOW;Masuda;Iwami Airport;1;6562;184;34.67639923;131.7899933
771;airport;AOJ;RJSA;Aomori;Aomori Airport;1;9846;664;40.73469925;140.6909943
772;airport;GAJ;RJSC;Yamagata;Yamagata Airport;1;6560;353;38.41189957;140.3710022
773;airport;AXT;RJSK;Akita;Akita Airport;1;8200;313;39.61560059;140.2189941
774;airport;MSJ;RJSM;Misawa;Misawa Air Base;1;10000;119;40.70320129;141.3679962
775;airport;ONJ;RJSR;Odate;Odate Noshiro Airport;1;6562;292;40.19189835;140.3710022
776;airport;SYO;RJSY;Shonai;Shonai Airport;1;6560;86;38.81219864;139.7870026
777;airport;HAC;RJTH;Hachijojima;Hachijojima Airport;1;6563;303;33.11500168;139.7859955
778;airport;OIM;RJTO;Izu Oshima;Oshima Airport;1;5905;130;34.7820015;139.3600006
779;airport;GMP;RKSS;Seoul;Gimpo International Airport;2;11811;58;37.55830002;126.7910004
780;airport;ISG;ROIG;Ishigaki;Ishigaki Airport;1;4920;93;24.34449959;124.1869965
781;airport;MMY;ROMY;Miyako City;Miyako Airport;1;6560;150;24.78280067;125.2949982
782;airport;SHA;ZSSS;Shanghai;Shanghai Hongqiao International Airport;1;11154;10;31.19790077;121.3359985
783;airport;FNI;LFTW;Nîmes/Garons;Nîmes-Arles-Camargue Airport;1;8005;309;43.75740051;4.416349888
784;airport;CRL;EBCI;Brussels;Brussels South Charleroi Airport;1;8366;614;50.45920181;4.453820229
785;airport;WAT;EIWF;Waterford;Waterford Airport;1;4701;119;52.18719864;-7.086959839
786;airport;RYG;ENRY;Rygge;Moss Airport, Rygge;1;8012;174;59.37889862;10.78559971
787;airport;WMI;EPMO;Warsaw;Modlin Airport;1;8202;341;52.4510994;20.65180016
788;airport;RZE;EPRZ;Rzeszów;Rzeszów-Jasionka Airport;2;10499;675;50.11000061;22.0189991
789;airport;PUY;LDPL;Pula;Pula Airport;1;9678;274;44.89350128;13.9222002
790;airport;ZAD;LDZD;Zadar;Zemunik Airport;2;8202;289;44.10829926;15.34669971
791;airport;BVA;LFOB;Beauvais/Tillé;Paris Beauvais Tillé Airport;3;7972;359;49.45439911;2.112780094
792;airport;TPS;LICT;Trapani;Vincenzo Florio Airport Trapani-Birgi;1;8852;25;37.91139984;12.48799992
793;airport;BGY;LIME;Bergamo;Il Caravaggio International Airport;2;9636;782;45.6739006;9.704170227
794;airport;CIA;LIRA;Roma;Ciampino–G. B. Pastine International Airport;1;7242;427;41.79940033;12.59490013
795;airport;CCC;MUCC;Cayo Coco;Jardines Del Rey Airport;1;9842;13;22.46100044;-78.32839966
796;airport;DJE;DTTJ;Djerba;Djerba Zarzis International Airport;1;10171;19;33.875;10.7755003
797;airport;HDF;EDAH;Heringsdorf;Heringsdorf Airport;2;7562;93;53.87870026;14.15229988
798;airport;FMO;EDDG;Münster;Münster Osnabrück Airport;1;7119;160;52.13460159;7.684830189
799;airport;FDH;EDNY;Friedrichshafen;Friedrichshafen Airport;1;7729;1367;47.67129898;9.511489868
800;airport;GWT;EDXW;Westerland;Westerland Sylt Airport;2;6955;51;54.91320038;8.340470314
801;airport;POZ;EPPO;Poznań;Poznań-?awica Airport;2;8215;308;52.42100143;16.82629967
802;airport;WDH;FYWH;Windhoek;Hosea Kutako International Airport;2;15010;5640;-22.47990036;17.47089958
803;airport;XRY;LEJR;Jerez de la Forntera;Jerez Airport;1;7546;93;36.74459839;-6.060110092
804;airport;GPA;LGRX;Patras;Araxos Airport;2;10999;46;38.15110016;21.42560005
805;airport;GRZ;LOWG;Graz;Graz Airport;3;9842;1115;46.99110031;15.43959999
806;airport;LNZ;LOWL;Linz;Linz Airport;2;9843;978;48.23320007;14.1875
807;airport;ESB;LTAC;Ankara;Esenboğa International Airport;2;12303;3125;40.12810135;32.99509811
808;airport;KIV;LUKK;Chişinău;Chişinău International Airport;1;11779;399;46.92770004;28.93099976
809;airport;TGD;LYPG;Podgorica;Podgorica Airport;2;8202;141;42.3594017;19.25189972
810;airport;OVB;UNNT;Novosibirsk;Tolmachevo Airport;2;11818;365;55.01259995;82.65070343
811;airport;DYU;UTDD;Dushanbe;Dushanbe Airport;1;10170;2575;38.54330063;68.82499695
812;airport;GOJ;UWGG;Nizhny Novgorod;Nizhny Novgorod International Airport;4;9203;256;56.23009872;43.7840004
813;airport;KUF;UWWW;Samara;Kurumoch International Airport;2;9846;477;53.50490189;50.16429901
814;airport;LUN;FLLS;Lusaka;Lusaka International Airport;2;12998;3779;-15.33080006;28.45260048
815;airport;HGA;HCMH;Hargeisa;Egal International Airport;1;8000;4423;9.518170357;44.08879852
816;airport;BBO;HCMI;Berbera;Berbera Airport;1;13582;30;10.38920021;44.94110107
817;airport;JIB;HDAM;Djibouti City;Djibouti-Ambouli Airport;1;10335;49;11.54730034;43.15950012
818;airport;HBE;HEBA;Alexandria;Borg El Arab International Airport;3;11156;177;30.91769981;29.69639969
819;airport;PZU;HSPN;Port Sudan;Port Sudan New International Airport;1;8202;135;19.43359947;37.23410034
820;airport;JUB;HSSJ;Juba;Juba International Airport;1;7874;1513;4.872010231;31.60110092
821;airport;KRT;HSSS;Khartoum;Khartoum International Airport;1;9751;1265;15.58950043;32.55319977
822;airport;DAR;HTDA;Dar es Salaam;Julius Nyerere International Airport;2;9843;182;-6.878109932;39.20259857
823;airport;GSM;OIKQ;Gheshm;Gheshm Airport;1;13861;45;26.94869995;56.26879883
824;airport;SKP;LWSK;Skopje;Skopje Alexander the Great Airport;1;8038;781;41.96160126;21.62140083
825;airport;KBL;OAKB;Kabul;Kabul International Airport;1;11483;5877;34.5658989;69.21230316
826;airport;BTS;LZIB;Bratislava;M. R. Štefánik Airport;2;10466;436;48.17020035;17.21269989
827;airport;DLA;FKKD;Douala;Douala International Airport;1;9350;33;4.006080151;9.719479561
828;airport;AAE;DABB;Annabah;Annaba Airport;2;9843;16;36.82220078;7.809169769
829;airport;CZL;DABC;Constantine;Mohamed Boudiaf International Airport;2;9843;2265;36.27600098;6.620389938
830;airport;ORN;DAOO;Oran;Es Senia Airport;1;10039;295;35.62390137;-0.621182978
831;airport;COO;DBBB;Cotonou;Cadjehoun Airport;1;7874;19;6.357230186;2.384350061
832;airport;OUA;DFFD;Ouagadougou;Ouagadougou Airport;2;9934;1037;12.35319996;-1.512420058
833;airport;ABJ;DIAP;Abidjan;Port Bouet Airport;1;9843;21;5.261390209;-3.926290035
834;airport;NIM;DRRN;Niamey;Diori Hamani International Airport;3;9843;732;13.48149967;2.183609962
835;airport;MIR;DTMB;Monastir;Monastir Habib Bourguiba International Airport;1;9678;9;35.7580986;10.75469971
836;airport;SFA;DTTX;Sfax;Sfax Thyna International Airport;1;9843;85;34.7179985;10.69099998
837;airport;LFW;DXXX;Lomé;Lomé-Tokoin Airport;1;9847;72;6.165609837;1.254510045
838;airport;BZV;FCBB;Brazzaville;Maya-Maya Airport;1;10827;1048;-4.251699924;15.25300026
839;airport;PNR;FCPP;Pointe Noire;Pointe Noire Airport;1;8530;55;-4.816030025;11.88659954
840;airport;BGF;FEFF;Bangui;Bangui M'Poko International Airport;1;8530;1208;4.398479939;18.51880074
841;airport;NSI;FKYS;Yaoundé;Yaoundé Nsimalen International Airport;1;11155;2278;3.722559929;11.5532999
842;airport;RUN;FMEE;St Denis;Roland Garros Airport;2;10499;66;-20.88710022;55.51029968
843;airport;TNR;FMMI;Antananarivo;Ivato Airport;1;10171;4198;-18.7968998;47.47880173
844;airport;LBV;FOOL;Libreville;Libreville Leon M'ba International Airport;1;9844;39;0.458600014;9.412280083
845;airport;NDJ;FTTJ;N'Djamena;N'Djamena International Airport;1;9186;968;12.13370037;15.0340004
846;airport;FIH;FZAA;Kinshasa;Ndjili International Airport;1;15420;1027;-4.385749817;15.44460011
847;airport;BKO;GABS;Senou;Senou Airport;1;8879;1247;12.53349972;-7.949940205
848;airport;ROB;GLRB;Monrovia;Roberts International Airport;1;11000;31;6.233789921;-10.36229992
849;airport;RBA;GMME;Rabat;Rabat-Salé Airport;1;11483;276;34.05149841;-6.751520157
850;airport;NKC;GQNN;Nouakchott;Nouakchott International Airport;1;9876;13;18.09819984;-15.94849968
851;airport;CKY;GUCY;Conakry;Conakry Airport;1;10826;72;9.57689;-13.612
852;airport;RAI;GVNP;Praia;Praia International Airport;3;6876;230;14.92450047;-23.49349976
853;airport;OVD;LEAS;Ranón;Asturias Airport;1;7218;416;43.56359863;-6.034619808
854;airport;VGO;LEVX;Vigo;Vigo Airport;1;7874;856;42.23180008;-8.62677002
855;airport;PUF;LFBP;Pau/Pyrénées (Uzein);Pau Pyrénées Airport;1;8202;616;43.38000107;-0.41861099
856;airport;BIQ;LFBZ;Biarritz/Anglet/Bayonne;Biarritz-Anglet-Bayonne Airport;1;7382;245;43.46839905;-1.52331996
857;airport;CLY;LFKC;Calvi/Sainte-Catherine;Calvi-Sainte-Catherine Airport;1;7579;209;42.53079987;8.793190002
858;airport;RNS;LFRN;Rennes/Saint-Jacques;Rennes-Saint-Jacques Airport;2;6890;124;48.06949997;-1.734789968
859;airport;OSR;LKMT;Ostrava;Ostrava Leos Janá?ek Airport;1;11484;844;49.69630051;18.11109924
860;airport;EVN;UDYZ;Yerevan;Zvartnots International Airport;1;12629;2838;40.14730072;44.39590073
861;airport;SVX;USSS;Yekaterinburg;Koltsovo Airport;2;9925;764;56.74309921;60.80270004
862;airport;UGC;UTNU;Urgench;Urgench Airport;1;11065;320;41.58430099;60.64170074
863;airport;YYJ;CYYJ;Victoria;Victoria International Airport;3;7000;63;48.64690018;-123.4260025
864;airport;ACV;KACV;Arcata/Eureka;Arcata Airport;2;6000;221;40.97809982;-124.1090012
865;airport;BFL;KBFL;Bakersfield;Meadows Field;2;10857;510;35.43360138;-119.0569992
866;airport;CEC;KCEC;Crescent City;Jack Mc Namara Field Airport;2;5002;61;41.78020096;-124.2369995
867;airport;CIC;KCIC;Chico;Chico Municipal Airport;2;6724;240;39.79539871;-121.8580017
868;airport;EUG;KEUG;Eugene;Mahlon Sweet Field;3;8009;374;44.12459946;-123.211998
869;airport;LMT;KLMT;Klamath Falls;Klamath Falls Airport;3;10301;4095;42.15610123;-121.7330017
870;airport;MFR;KMFR;Medford;Rogue Valley International Medford Airport;2;8800;1335;42.37419891;-122.8730011
871;airport;MOD;KMOD;Modesto;Modesto City Co-Harry Sham Field;2;5911;97;37.62580109;-120.9540024
872;airport;MRY;KMRY;Monterey;Monterey Peninsula Airport;2;7616;257;36.5870018;-121.8430023
873;airport;OTH;KOTH;North Bend;Southwest Oregon Regional Airport;2;5321;17;43.417099;-124.2460022
874;airport;PSC;KPSC;Pasco;Tri Cities Airport;3;7711;410;46.26470184;-119.1190033
875;airport;RDD;KRDD;Redding;Redding Municipal Airport;2;7003;505;40.50899887;-122.2929993
876;airport;RDM;KRDM;Redmond;Roberts Field;2;7040;3080;44.2541008;-121.1500015
877;airport;SBA;KSBA;Santa Barbara;Santa Barbara Municipal Airport;3;6052;13;34.42620087;-119.8399963
878;airport;SBP;KSBP;San Luis Obispo;San Luis County Regional Airport;2;6100;212;35.23680115;-120.6419983
879;airport;RMQ;RCMQ;Taichung City;Taichung Ching Chuang Kang Airport;1;12000;663;24.26469994;120.6210022
880;airport;TNN;RCNN;Tainan City;Tainan Airport;2;10007;63;22.9503994;120.2060013
881;airport;TYN;ZBYN;Taiyuan;Taiyuan Wusu Airport;1;10500;2575;37.74689865;112.6279984
882;airport;YLW;CYLW;Kelowna;Kelowna International Airport;1;8900;1421;49.95610046;-119.3779984
883;airport;ASE;KASE;Aspen;Aspen-Pitkin Co/Sardy Field;1;7006;7820;39.22320175;-106.8690033
884;airport;BLI;KBLI;Bellingham;Bellingham International Airport;1;6701;170;48.7928009;-122.538002
885;airport;CLD;KCRQ;Carlsbad;Mc Clellan-Palomar Airport;1;4897;331;33.12829971;-117.2799988
886;airport;GEG;KGEG;Spokane;Spokane International Airport;2;11002;2376;47.61989975;-117.5339966
887;airport;IGM;KIGM;Kingman;Kingman Airport;3;6826;3449;35.2594986;-113.9380035
888;airport;MCE;KMCE;Merced;Merced Regional Macready Field;1;5903;155;37.28469849;-120.5139999
889;airport;MMH;KMMH;Mammoth Lakes;Mammoth Yosemite Airport;1;7000;7135;37.62409973;-118.8379974
890;airport;YUM;KNYL;Yuma;Yuma MCAS/Yuma International Airport;4;13299;213;32.65660095;-114.6060028
891;airport;PRC;KPRC;Prescott;Ernest A. Love Field;3;7550;5045;34.65449905;-112.4199982
892;airport;SMX;KSMX;Santa Maria;Santa Maria Pub/Capt G Allan Hancock Field;2;6304;261;34.89889908;-120.4570007
893;airport;STS;KSTS;Santa Rosa;Charles M. Schulz Sonoma County Airport;2;5115;128;38.50899887;-122.8130035
894;airport;VIS;KVIS;Visalia;Visalia Municipal Airport;1;6559;295;36.31869888;-119.3929977
895;airport;DGO;MMDO;Durango;General Guadalupe Victoria International Airport;1;9514;6104;24.12420082;-104.5279999
896;airport;HMO;MMHO;Hermosillo;General Ignacio P. Garcia International Airport;2;7546;627;29.09589958;-111.0479965
897;airport;LTO;MMLT;Loreto;Loreto International Airport;1;7218;34;25.98920059;-111.3479996
898;airport;UPN;MMPN;Uruapan;Licenciado y General Ignacio Lopez Rayon Airport;1;7874;5258;19.39669991;-102.0390015
899;airport;ZIH;MMZH;Ixtapa;Ixtapa Zihuatanejo International Airport;1;8202;26;17.60160065;-101.4609985
900;airport;ZLO;MMZO;Manzanillo;Playa De Oro International Airport;1;7218;30;19.14480019;-104.5589981
901;airport;RAR;NCRG;Avarua;Rarotonga International Airport;1;7638;19;-21.20269966;-159.8059998
902;airport;TNA;ZSJN;Jinan;Yaoqiang Airport;1;11814;76;36.85720062;117.2160034
903;airport;XIY;ZLXY;Xianyang;Xi'an Xianyang International Airport;1;9842;1572;34.44710159;108.7519989
904;airport;KHN;ZSCN;Nanchang;Nanchang Changbei International Airport;1;9186;143;28.86499977;115.9000015
905;airport;CGO;ZHCC;Zhengzhou;Zhengzhou Xinzheng International Airport;1;11155;495;34.5196991;113.8410034
906;airport;YNT;ZSYT;Yantai;Yantai Laishan Airport;1;8530;59;37.40169907;121.3720016
907;airport;PVU;KPVU;Provo;Provo Municipal Airport;2;8599;4497;40.21920013;-111.7229996
908;airport;BTM;KBTM;Butte;Bert Mooney Airport;3;9001;5550;45.95479965;-112.4970016
909;airport;BZN;KBZN;Bozeman;Gallatin Field;3;9003;4473;45.77750015;-111.1529999
910;airport;CDC;KCDC;Cedar City;Cedar City Regional Airport;2;8653;5622;37.70100021;-113.098999
911;airport;CNY;KCNY;Moab;Canyonlands Field;1;7100;4557;38.75500107;-109.7549973
912;airport;COD;KCOD;Cody;Yellowstone Regional Airport;1;8268;5102;44.52019882;-109.0240021
913;airport;CPR;KCPR;Casper;Casper-Natrona County International Airport;4;10164;5350;42.90800095;-106.4639969
914;airport;EKO;KEKO;Elko;Elko Regional Airport;2;7214;5140;40.82490158;-115.7919998
915;airport;GCC;KGCC;Gillette;Gillette Campbell County Airport;2;7500;4365;44.34889984;-105.5390015
916;airport;FCA;KGPI;Kalispell;Glacier Park International Airport;3;9007;2977;48.3105011;-114.2559967
917;airport;GTF;KGTF;Great Falls;Great Falls International Airport;3;10502;3680;47.48199844;-111.3710022
918;airport;HLN;KHLN;Helena;Helena Regional Airport;3;9000;3877;46.60680008;-111.9830017
919;airport;JAC;KJAC;Jackson;Jackson Hole Airport;1;6300;6451;43.6072998;-110.737999
920;airport;LWS;KLWS;Lewiston;Lewiston Nez Perce County Airport;2;6511;1442;46.37450027;-117.0149994
921;airport;MSO;KMSO;Missoula;Missoula International Airport;2;9501;3206;46.91630173;-114.0910034
922;airport;PIH;KPIH;Pocatello;Pocatello Regional Airport;2;9060;4452;42.90980148;-112.5960007
923;airport;RKS;KRKS;Rock Springs;Rock Springs Sweetwater County Airport;2;10000;6764;41.59420013;-109.0650024
924;airport;SGU;KSGU;St George;St George Municipal Airport;1;6606;2941;37.03638889;-113.5103056
925;airport;TWF;KTWF;Twin Falls;Joslin Field Magic Valley Regional Airport;2;8703;4154;42.48180008;-114.487999
926;airport;VEL;KVEL;Vernal;Vernal Regional Airport;2;6201;5278;40.4408989;-109.5100021
927;airport;XUZ;ZSXZ;Xuzhou;Xuzhou Guanyin Airport;1;11548;115;34.059056;117.555278
928;airport;SYX;ZJSY;Sanya;Sanya Phoenix International Airport;1;11155;92;18.30290031;109.4120026
929;airport;BKG;KBBG;Branson;Branson Airport;1;7140;1302;36.532082;-93.200544
930;airport;YMM;CYMM;Fort McMurray;Fort McMurray Airport;1;7503;1211;56.65330124;-111.2220001
931;airport;AIA;KAIA;Alliance;Alliance Municipal Airport;3;9202;3931;42.05319977;-102.8040009
932;airport;ALS;KALS;Alamosa;San Luis Valley Regional Bergman Field;2;8519;7539;37.43489838;-105.8669968
933;airport;BFF;KBFF;Scottsbluff;Western Neb. Rgnl/William B. Heilig Airport;2;8279;3967;41.87400055;-103.5960007
934;airport;BIS;KBIS;Bismarck;Bismarck Municipal Airport;2;8794;1661;46.77270126;-100.7460022
935;airport;CEZ;KCEZ;Cortez;Cortez Municipal Airport;1;7205;5918;37.3030014;-108.6279984
936;airport;CYS;KCYS;Cheyenne;Cheyenne Regional Jerry Olson Field;2;9267;6159;41.15570068;-104.8119965
937;airport;DDC;KDDC;Dodge City;Dodge City Regional Airport;2;6899;2594;37.76340103;-99.96559906
938;airport;DIK;KDIK;Dickinson;Dickinson Theodore Roosevelt Regional Airport;2;6400;2592;46.79740143;-102.802002
939;airport;EAR;KEAR;Kearney;Kearney Regional Airport;2;7094;2131;40.72700119;-99.00679779
940;airport;FMN;KFMN;Farmington;Four Corners Regional Airport;2;6704;5506;36.74119949;-108.2300034
941;airport;GUC;KGUC;Gunnison;Gunnison Crested Butte Regional Airport;2;9400;7680;38.53390121;-106.9329987
942;airport;ILG;KILG;Wilmington;New Castle Airport;3;7181;80;39.67869949;-75.60649872
943;airport;ISN;KISN;Williston;Sloulin Field International Airport;2;6650;1982;48.17789841;-103.6419983
944;airport;LAR;KLAR;Laramie;Laramie Regional Airport;2;8500;7284;41.31209946;-105.6750031
945;airport;LBF;KLBF;North Platte;North Platte Regional Airport Lee Bird Field;2;8000;2777;41.12620163;-100.6839981
946;airport;LBL;KLBL;Liberal;Liberal Mid-America Regional Airport;2;7105;2885;37.0442009;-100.9599991
947;airport;LNK;KLNK;Lincoln;Lincoln Airport;3;12901;1219;40.85100174;-96.75920105
948;airport;MCK;KMCK;Mc Cook;Mc Cook Ben Nelson Regional Airport;3;6449;2583;40.20629883;-100.5920029
949;airport;MOT;KMOT;Minot;Minot International Airport;2;7700;1716;48.25939941;-101.2799988
950;airport;MTJ;KMTJ;Montrose;Montrose Regional Airport;2;10000;5759;38.50979996;-107.8939972
951;airport;PGA;KPGA;Page;Page Municipal Airport;2;5950;4316;36.92610168;-111.447998
952;airport;PIR;KPIR;Pierre;Pierre Regional Airport;2;6900;1744;44.38270187;-100.2860031
953;airport;PUB;KPUB;Pueblo;Pueblo Memorial Airport;4;10496;4726;38.28910065;-104.4970016
954;airport;RIW;KRIW;Riverton;Riverton Regional Airport;2;8203;5525;43.06420136;-108.4599991
955;airport;SHR;KSHR;Sheridan;Sheridan County Airport;3;8300;4021;44.76919937;-106.9800034
956;airport;ART;KART;Watertown;Watertown International Airport;2;5000;325;43.9919014;-76.021698
957;airport;CMX;KCMX;Hancock;Houghton County Memorial Airport;2;6501;1095;47.16839981;-88.4890976
958;airport;CWA;KCWA;Mosinee;Central Wisconsin Airport;2;7645;1277;44.77759933;-89.66680145
959;airport;DBQ;KDBQ;Dubuque;Dubuque Regional Airport;2;6502;1077;42.40200043;-90.70950317
960;airport;DEC;KDEC;Decatur;Decatur Airport;3;8496;682;39.83459854;-88.86569977
961;airport;DLH;KDLH;Duluth;Duluth International Airport;2;10152;1428;46.84209824;-92.19360352
962;airport;EAU;KEAU;Eau Claire;Chippewa Valley Regional Airport;2;8101;913;44.86579895;-91.48429871
963;airport;ELM;KELM;Elmira/Corning;Elmira Corning Regional Airport;3;7000;954;42.15990067;-76.89160156
964;airport;LSE;KLSE;La Crosse;La Crosse Municipal Airport;3;8537;655;43.87900162;-91.25669861
965;airport;MKG;KMKG;Muskegon;Muskegon County Airport;2;6501;629;43.16949844;-86.23819733
966;airport;PAH;KPAH;Paducah;Barkley Regional Airport;2;6499;410;37.06079865;-88.77380371
967;airport;STC;KSTC;St Cloud;St Cloud Regional Airport;2;7000;1031;45.54660034;-94.05989838
968;airport;TOL;KTOL;Toledo;Toledo Express Airport;2;10600;683;41.58679962;-83.80780029
969;airport;TVC;KTVC;Traverse City;Cherry Capital Airport;3;6501;624;44.74140167;-85.5821991
970;airport;SCE;KUNV;State College;University Park Airport;1;6701;1239;40.84930038;-77.84870148
971;airport;SUV;NFNA;Nausori;Nausori International Airport;1;6129;17;-18.04330063;178.5590057
972;airport;TBU;NFTF;Nuku'alofa;Fua'amotu International Airport;2;8795;126;-21.24119949;-175.1499939
973;airport;VLI;NVVV;Port Vila;Port Vila Bauerfield Airport;2;8530;70;-17.69930077;168.3200073
974;airport;ZQN;NZQN;Queenstown;Queenstown International Airport;4;6204;1171;-45.02109909;168.7389984
975;airport;ARM;YARM;Armidale;Armidale Airport;2;5702;3556;-30.52809906;151.6170044
976;airport;BHQ;YBHI;Broken Hill;Broken Hill Airport;2;8251;958;-32.00139999;141.4720001
977;airport;HTI;YBHM;Hamilton Island;Hamilton Island Airport;1;5591;15;-20.35810089;148.9519959
978;airport;MKY;YBMK;Mackay;Mackay Airport;2;6499;19;-21.17169952;149.1799927
979;airport;BNK;YBNA;Ballina;Ballina Byron Gateway Airport;1;6234;7;-28.83390045;153.5619965
980;airport;PPP;YBPN;Proserpine;Proserpine Whitsunday Coast Airport;2;6801;82;-20.49500084;148.552002
981;airport;BME;YBRM;Broome;Broome International Airport;1;8064;56;-17.94470024;122.2320023
982;airport;BHS;YBTH;Bathurst;Bathurst Airport;2;5594;2435;-33.40940094;149.6519928
983;airport;TSV;YBTL;Townsville;Townsville Airport;2;7999;18;-19.25250053;146.7649994
984;airport;GLT;YGLA;Gladstone;Gladstone Airport;1;5364;64;-23.86969948;151.2230072
985;airport;GFF;YGTH;Griffith;Griffith Airport;2;4931;439;-34.25080109;146.0670013
986;airport;HVB;YHBA;Hervey Bay;Hervey Bay Airport;1;6561;60;-25.31889915;152.8800049
987;airport;LDH;YLHI;Lord Howe Island;Lord Howe Island Airport;1;2907;5;-31.53829956;159.0769959
988;airport;LSY;YLIS;Lismore;Lismore Airport;1;5404;35;-28.83029938;153.2599945
989;airport;AVV;YMAV;Melbourne;Avalon Airport;1;10000;35;-38.03939819;144.4689941
990;airport;ABX;YMAY;Albury;Albury Airport;1;6234;539;-36.06779861;146.9579926
991;airport;MIM;YMER;Merimbula;Merimbula Airport;1;5256;7;-36.90859985;149.901001
992;airport;HBA;YMHB;Hobart;Hobart International Airport;1;7385;13;-42.83610153;147.5099945
993;airport;MQL;YMIA;Mildura;Mildura Airport;2;6004;167;-34.22919846;142.0859985
994;airport;LST;YMLT;Launceston;Launceston Airport;3;6499;562;-41.54529953;147.2140045
995;airport;MRZ;YMOR;Moree;Moree Airport;2;5292;701;-29.49889946;149.8450012
996;airport;MYA;YMRY;Moruya;Moruya Airport;2;4997;14;-35.89780045;150.1439972
997;airport;NRA;YNAR;Narrandera;Narrandera Airport;2;5302;474;-34.70220184;146.5119934
998;airport;OAG;YORG;Orange;Orange Airport;2;5499;3115;-33.38169861;149.1329956
999;airport;KTA;YPKA;Karratha;Karratha Airport;1;6070;29;-20.71220016;116.7730026
1000;airport;PKE;YPKS;Parkes;Parkes Airport;2;5525;1069;-33.13140106;148.2389984
1001;airport;PQQ;YPMQ;Port Macquarie;Port Macquarie Airport;2;5203;12;-31.43580055;152.8630066
1002;airport;CFS;YCFS;Coffs Harbour;Coffs Harbour Airport;2;6824;18;-30.32060051;153.1159973
1003;airport;DBO;YSDU;Dubbo;Dubbo City Regional Airport;2;5604;935;-32.21670151;148.5749969
1004;airport;NLK;YSNF;Burnt Pine;Norfolk Island International Airport;2;6398;371;-29.04159927;167.9389954
1005;airport;TMW;YSTW;Tamworth;Tamworth Airport;4;7218;1334;-31.08390045;150.8470001
1006;airport;WGA;YSWG;Wagga Wagga;Wagga Wagga City Airport;2;5801;724;-35.16529846;147.4660034
1007;airport;TRO;YTRE;Taree;Taree Airport;2;4934;38;-31.8885994;152.5140076
1008;airport;TWB;YTWB;Toowoomba;Toowoomba Airport;2;3678;2086;-27.5428009;151.9160004
1009;airport;NTL;YWLM;Williamtown;Newcastle Airport;1;7999;31;-32.79499817;151.8339996
1010;airport;DPO;YDPO;Devonport;Devonport Airport;2;6030;33;-41.16970062;146.4299927
1011;airport;KNS;YKII;Currie;King Island Airport;3;5198;132;-39.87749863;143.878006
1012;airport;MGB;YMTG;Mount Gambier;Mount Gambier Airport;3;5000;212;-37.74560165;140.7850037
1013;airport;KGI;YPKG;Kalgoorlie;Kalgoorlie Boulder Airport;2;6562;1203;-30.7894001;121.461998
1014;airport;PHE;YPPD;Port Hedland;Port Hedland International Airport;2;8202;33;-20.37779999;118.6259995
1015;airport;BWT;YWYY;Burnie;Wynyard Airport;2;5413;62;-40.99890137;145.7310028
1016;airport;TUO;NZAP;Taupo;Taupo Airport;2;4547;1335;-38.73970032;176.0839996
1017;airport;DUD;NZDN;Dunedin;Dunedin Airport;1;6234;4;-45.92810059;170.197998
1018;airport;GIS;NZGS;Gisborne;Gisborne Airport;5;4298;15;-38.66329956;177.9779968
1019;airport;HLZ;NZHN;Hamilton;Hamilton International Airport;5;6430;172;-37.86669922;175.3320007
1020;airport;KKE;NZKK;Kerikeri;Kerikeri Airport;4;3904;492;-35.26279831;173.9120026
1021;airport;KAT;NZKT;Kaitaia;Kaitaia Airport;2;4600;270;-35.06999969;173.2850037
1022;airport;NPL;NZNP;New Plymouth;New Plymouth Airport;3;4298;97;-39.00859833;174.1790009
1023;airport;NPE;NZNR;Napier;Napier Airport;5;4298;6;-39.46580124;176.8699951
1024;airport;NSN;NZNS;Nelson;Nelson Airport;5;4420;17;-41.2983017;173.220993
1025;airport;PMR;NZPM;Palmerston North;Palmerston North Airport;3;6240;151;-40.3205986;175.6170044
1026;airport;PPQ;NZPP;Paraparaumu;Paraparaumu Airport;5;4429;22;-40.90470123;174.9889984
1027;airport;ROT;NZRO;Rotorua;Rotorua Regional Airport;3;5321;935;-38.10919952;176.3170013
1028;airport;TRG;NZTG;Tauranga;Tauranga Airport;5;5988;13;-37.6719017;176.1959991
1029;airport;BHE;NZWB;Blenheim;Woodbourne Airport;3;4675;109;-41.5182991;173.8699951
1030;airport;WHK;NZWK;Whakatane;Whakatane Airport;3;4200;20;-37.92060089;176.9140015
1031;airport;WRE;NZWR;Whangarei;Whangarei Airport;2;3599;133;-35.7682991;174.3650055
1032;airport;WAG;NZWU;Wanganui;Wanganui Airport;1;4521;27;-39.96220016;175.0249939
1033;airport;HLD;ZBLA;Hailar;Dongshan Airport;1;8530;2169;49.20500183;119.8249969
1034;airport;TAE;RKTN;Daegu;Daegu Airport;2;9039;116;35.89410019;128.6589966
1035;airport;YKS;UEEE;Yakutsk;Yakutsk Airport;2;11155;325;62.09329987;129.7709961
